Index|codigo_1|codigo_2|idx_codigo|id_establecimiento|clee|nom_estab|raz_social|entidad|municipio|cod_postal|codigo_act|nombre_act|fecha_alta|www|latitud|longitud|per_ocu|min_ocupacion|max_ocupacion
6342|6308272|531114|0|6308272|09016561620000132012000000U4|FULL SERVICE DE MÉXICO SA DE CV|FULL SERVICE DE MEXICO SA DE CV|CIUDAD DE MÉXICO|Miguel Hidalgo|11560.0|531114|Alquiler sin intermediación de oficinas y locales comerciales|2010-07||19.43543705|-99.19015258|251 y más personas|251|inf
6343|6988328|713943|1|6988328|01001713943002732000000000U2|ENERGYM||AGUASCALIENTES|Aguascalientes|20328.0|713943|Centros de acondicionamiento físico del sector privado|2019-11||21.9169813|-102.33329726|6 a 10 personas|6|10
6343|6950914|713943|2|6950914|03003713943001311000000000U0|ENERGYM FITNESS CENTER||BAJA CALIFORNIA SUR|La Paz|23330.0|713943|Centros de acondicionamiento físico del sector privado|2019-11||23.68085279|-109.70901721|0 a 5 personas|0|5
6343|176429|713943|3|176429|03003713943001081000000000U9|GIMNASIO ENERGYM||BAJA CALIFORNIA SUR|La Paz|23083.0|713943|Centros de acondicionamiento físico del sector privado|2014-12||24.09318499|-110.31342762|0 a 5 personas|0|5
6343|7682419|713943|4|7682419|05030713943002623000000000U8|ENERGYM||COAHUILA DE ZARAGOZA|Saltillo|25000.0|713943|Centros de acondicionamiento físico del sector privado|2019-11||25.41860569|-100.99788064|11 a 30 personas|11|30
6343|313252|713943|5|313252|05018713943000181001000000U4|ENERGYM||COAHUILA DE ZARAGOZA|Monclova|25700.0|713943|Centros de acondicionamiento físico del sector privado|2010-07||26.90312222|-101.42315803|6 a 10 personas|6|10
6343|8434818|713943|6|8434818|05027713943000221000000000U9|ENERGYM||COAHUILA DE ZARAGOZA|Ramos Arizpe|25904.0|713943|Centros de acondicionamiento físico del sector privado|2019-11||25.53851998|-100.94153734|0 a 5 personas|0|5
6343|282794|713943|7|282794|05035713943000841000000000U7|GYM ENERGYM||COAHUILA DE ZARAGOZA|Torreón|27250.0|713943|Centros de acondicionamiento físico del sector privado|2014-12||25.51154992|-103.40537505|0 a 5 personas|0|5
6343|366852|713943|8|366852|07101713943000101001000000U4|ENERGYM||CHIAPAS|Tuxtla Gutiérrez|29066.0|713943|Centros de acondicionamiento físico del sector privado|2010-07|WWW.ENERGYM.COM|16.75093699|-93.11543354|0 a 5 personas|0|5
6343|470063|713943|9|470063|07101713943000482001000000U8|ENERGYM||CHIAPAS|Tuxtla Gutiérrez|29066.0|713943|Centros de acondicionamiento físico del sector privado|2010-07|WWW.ENERGIM.COM.MX|16.7512256|-93.11159001|0 a 5 personas|0|5
6343|474548|713943|10|474548|07101713943000011000000000U5|ENERGYM||CHIAPAS|Tuxtla Gutiérrez|29000.0|713943|Centros de acondicionamiento físico del sector privado|2010-07|WWW.ENERGYM.COM.MX|16.75041199|-93.10204397|6 a 10 personas|6|10
6343|7457776|713943|11|7457776|07017713943000151000000000U7|GIMNASIO MONSTER ENERGYM||CHIAPAS|Cintalapa|30400.0|713943|Centros de acondicionamiento físico del sector privado|2019-11||16.69698079|-93.71909873|0 a 5 personas|0|5
6343|7187444|713943|12|7187444|08010713943000041000000000U4|ENERGYM||CHIHUAHUA|Buenaventura|31880.0|713943|Centros de acondicionamiento físico del sector privado|2019-11||30.14970082|-106.88259361|0 a 5 personas|0|5
6343|928293|713943|13|928293|09010713943001151000000000U9|ENERGYM||CIUDAD DE MÉXICO|Álvaro Obregón|1840.0|713943|Centros de acondicionamiento físico del sector privado|2014-12||19.32871959|-99.25538296|0 a 5 personas|0|5
6343|959635|713943|14|959635|09014713943000081001000000U1|ENERGYM||CIUDAD DE MÉXICO|Benito Juárez|3020.0|713943|Centros de acondicionamiento físico del sector privado|2010-07||19.3958416|-99.15762635|6 a 10 personas|6|10
6343|940985|713943|15|940985|09013713943000581000000000U2|GIMNASIO DE PESAS ENERGYM||CIUDAD DE MÉXICO|Xochimilco|16070.0|713943|Centros de acondicionamiento físico del sector privado|2014-12||19.26084083|-99.10590664|0 a 5 personas|0|5
6343|9255455|713943|16|9255455|09007713943006361000000000U5|GIMNASIO ENERGYM||CIUDAD DE MÉXICO|Iztapalapa|9730.0|713943|Centros de acondicionamiento físico del sector privado|2020-11||19.3371251|-99.02876471|0 a 5 personas|0|5
6343|1048928|713943|17|1048928|09011713943000462001000000U9|GIMNASIO ENERGYM TLAHUAC||CIUDAD DE MÉXICO|Tláhuac|13360.0|713943|Centros de acondicionamiento físico del sector privado|2010-07||19.29119693|-99.03920374|6 a 10 personas|6|10
6343|8210273|713943|18|8210273|09005713943003371000000000U1|GYM ENERGYM||CIUDAD DE MÉXICO|Gustavo A. Madero|7310.0|713943|Centros de acondicionamiento físico del sector privado|2019-11||19.51832356|-99.13835665|0 a 5 personas|0|5
6343|7809291|713943|19|7809291|10005713943001781000000000U0|GIMNASIO ENERGYM||DURANGO|Durango|34236.0|713943|Centros de acondicionamiento físico del sector privado|2019-11||24.03860547|-104.5994765|0 a 5 personas|0|5
6343|1202756|713943|20|1202756|11003466410001251011000000U7|ENERGYM||GUANAJUATO|San Miguel de Allende|37747.0|713943|Centros de acondicionamiento físico del sector privado|2014-12||20.90541859|-100.72573007|6 a 10 personas|6|10
6343|8066124|713943|21|8066124|11028713943000281000000000U3|ENERGYM||GUANAJUATO|Salvatierra|38900.0|713943|Centros de acondicionamiento físico del sector privado|2019-11||20.21671368|-100.86924188|0 a 5 personas|0|5
6343|9222472|713943|22|9222472|11009713943000132000000000U8|GIMNACIO ENERGYM||GUANAJUATO|Comonfort|38210.0|713943|Centros de acondicionamiento físico del sector privado|2019-11||20.66918189|-100.74839411|6 a 10 personas|6|10
6343|7951741|713943|23|7951741|11020713943006571000000000U8|GIMNASIO ENERGYM||GUANAJUATO|León|37250.0|713943|Centros de acondicionamiento físico del sector privado|2019-11||21.13457892|-101.65102671|0 a 5 personas|0|5
6343|7958032|713943|24|7958032|12058713943000101000000000U9|ENERGYM||GUERRERO|Teloloapan|40400.0|713943|Centros de acondicionamiento físico del sector privado|2019-11||18.36777501|-99.86148379|0 a 5 personas|0|5
6343|9197680|713943|25|9197680|12029713943000901000000000U3|ENERGYM||GUERRERO|Chilpancingo de los Bravo|39000.0|713943|Centros de acondicionamiento físico del sector privado|2019-11||17.55106425|-99.50205023|0 a 5 personas|0|5
6343|7958629|713943|26|7958629|12049713943000011000000000U9|ENERGYM GIMNASIO||GUERRERO|Pilcaya|40380.0|713943|Centros de acondicionamiento físico del sector privado|2019-11||18.74274078|-99.67482599|0 a 5 personas|0|5
6343|8139900|713943|27|8139900|12001713943002111000000000U6|GAP ENERGYM||GUERRERO|Acapulco de Juárez|39700.0|713943|Centros de acondicionamiento físico del sector privado|2019-11||16.8917176|-99.83520308|0 a 5 personas|0|5
6343|7918130|713943|28|7918130|12035713943000252000000000U8|GIMNACIO DE APARATOS ENERGYM FITNESS||GUERRERO|Iguala de la Independencia|40068.0|713943|Centros de acondicionamiento físico del sector privado|2019-11||18.33777704|-99.55064255|6 a 10 personas|6|10
6343|8526008|713943|29|8526008|12001713943001541000000000U5|GIMNASIO GAP ENERGYM||GUERRERO|Acapulco de Juárez|39700.0|713943|Centros de acondicionamiento físico del sector privado|2019-11||16.89144777|-99.83537335|0 a 5 personas|0|5
6343|1624813|713943|30|1624813|13048713943000422000000000U9|GIMNASIO ENERGYM||HIDALGO|Pachuca de Soto|42084.0|713943|Centros de acondicionamiento físico del sector privado|2010-07||20.08667585|-98.77835785|0 a 5 personas|0|5
6343|7352741|713943|31|7352741|14083713943000291000000000U4|ENERGYM||JALISCO|Tala|45308.0|713943|Centros de acondicionamiento físico del sector privado|2019-11||20.65856845|-103.70808153|0 a 5 personas|0|5
6343|7491084|713943|32|7491084|14021713943000092000000000U6|ENERGYM||JALISCO|Casimiro Castillo|48946.0|713943|Centros de acondicionamiento físico del sector privado|2019-11||19.55053438|-104.48410355|6 a 10 personas|6|10
6343|9098295|713943|33|9098295|14018713943000192000000000U0|ENERGYM||JALISCO|La Barca|47910.0|713943|Centros de acondicionamiento físico del sector privado|2019-11||20.2782647|-102.55035073|6 a 10 personas|6|10
6343|7406136|713943|34|7406136|14101713943001691000000000U4|ENERGYM L||JALISCO|Tonalá|45400.0|713943|Centros de acondicionamiento físico del sector privado|2019-11||20.62400441|-103.24407471|0 a 5 personas|0|5
6343|1632475|713943|35|1632475|14120611621000251000000000U3|GIMNASIO ENERGYM||JALISCO|Zapopan|45180.0|713943|Centros de acondicionamiento físico del sector privado|2010-07||20.73947065|-103.3513121|0 a 5 personas|0|5
6343|1916548|713943|36|1916548|14120713943001082001000000U6|GIMNASIO ENERGYM||JALISCO|Zapopan|45080.0|713943|Centros de acondicionamiento físico del sector privado|2010-07|WWW.ENERGYMPINARDELACALMA.COM|20.6198693|-103.41770756|6 a 10 personas|6|10
6343|2153668|713943|37|2153668|15033713943000051000000000S6|ENERGYM||MÉXICO|Ecatepec de Morelos|55119.0|713943|Centros de acondicionamiento físico del sector privado|2010-07||19.57353183|-99.02629347|0 a 5 personas|0|5
6343|2203994|713943|38|2203994|15057713943000941000000000U7|ENERGYM||MÉXICO|Naucalpan de Juárez|53420.0|713943|Centros de acondicionamiento físico del sector privado|2014-12||19.46692391|-99.25948312|0 a 5 personas|0|5
6343|2209629|713943|39|2209629|15013713943000741000000000U4|ENERGYM||MÉXICO|Atizapán de Zaragoza|52990.0|713943|Centros de acondicionamiento físico del sector privado|2014-12||19.53507185|-99.24595886|0 a 5 personas|0|5
6343|2311765|713943|40|2311765|15033713943004351000000000U6|ENERGYM||MÉXICO|Ecatepec de Morelos|55067.0|713943|Centros de acondicionamiento físico del sector privado|2014-12||19.6443415|-98.98913541|0 a 5 personas|0|5
6343|8479093|713943|41|8479093|15115713943000221000000000U0|ENERGYM||MÉXICO|Xonacatlán|52060.0|713943|Centros de acondicionamiento físico del sector privado|2019-11||19.40499189|-99.5281547|0 a 5 personas|0|5
6343|8459279|713943|42|8459279|15106713943002571000000000U5|ENERGYM|ENERGYM |MÉXICO|Toluca|50010.0|713943|Centros de acondicionamiento físico del sector privado|2019-11||19.31213149|-99.62313669|0 a 5 personas|0|5
6343|2432343|713943|43|2432343|15106713943002181000000000U3|ENERGYM||MÉXICO|Toluca|50240.0|713943|Centros de acondicionamiento físico del sector privado|2014-12||19.29859579|-99.59404283|0 a 5 personas|0|5
6343|8762134|713943|44|8762134|15006713943000051000000000U2|ENERGYM FITNESS CLUB||MÉXICO|Almoloya del Río|52540.0|713943|Centros de acondicionamiento físico del sector privado|2019-11||19.16044245|-99.48722812|0 a 5 personas|0|5
6343|8548470|713943|45|8548470|15002713943000381000000000U2|ENERGYM GIMNASIO||MÉXICO|Acolman|55885.0|713943|Centros de acondicionamiento físico del sector privado|2019-11||19.61448473|-98.93646436|0 a 5 personas|0|5
6343|2351943|713943|46|2351943|15070713943000561001000000U6|GIMNACIO ENERGYM||MÉXICO|La Paz|56430.0|713943|Centros de acondicionamiento físico del sector privado|2014-12||19.36321697|-98.97200672|6 a 10 personas|6|10
6343|2230574|713943|47|2230574|15104713943001401000000000U1|GIMNASIO ENERGYM||MÉXICO|Tlalnepantla de Baz|54054.0|713943|Centros de acondicionamiento físico del sector privado|2014-12||19.52885422|-99.23284696|0 a 5 personas|0|5
6343|2154380|713943|48|2154380|15020713943000101000000000U6|GYMNASIO ENERGYM||MÉXICO|Coacalco de Berriozábal|55700.0|713943|Centros de acondicionamiento físico del sector privado|2010-07||19.62753633|-99.10353207|0 a 5 personas|0|5
6343|8452112|713943|49|8452112|16053713943003971000000000S9|AEROBICS ENERGYM||MICHOACÁN DE OCAMPO|Morelia|58128.0|713943|Centros de acondicionamiento físico del sector privado|2019-11||19.73346501|-101.18012333|0 a 5 personas|0|5
6343|8475357|713943|50|8475357|16053713943002801000000000U9|CARDIO ENERGYM||MICHOACÁN DE OCAMPO|Morelia|58110.0|713943|Centros de acondicionamiento físico del sector privado|2019-11||19.71757356|-101.19683934|0 a 5 personas|0|5
6344|763739|466311|51|763739|09016466311000382000000000U7|DECO HOUSE POLANCO|DECO HOUSE POLANCO SA DE CV|CIUDAD DE MÉXICO|Miguel Hidalgo|11560.0|466311|Comercio al por menor de alfombras, cortinas, tapices y similares|2010-07|WWW.DECOHOUSE.COM.MX|19.43540306|-99.1891099|6 a 10 personas|6|10
6347|895027|435412|52|895027|09015435412000831001000000U9|BOJMA DE MEXICO|BOJMA DE MEXICO SA DE CV|CIUDAD DE MÉXICO|Cuauhtémoc|6600.0|435412|Comercio al por mayor de mobiliario y equipo de oficina|2014-12||19.42713278|-99.16263447|6 a 10 personas|6|10
6353|7934572|332999|53|7934572|09002332999000272000000000U4|LGO RACKS|LGO RACKS SA DE CV|CIUDAD DE MÉXICO|Azcapotzalco|2240.0|332999|Fabricación de otros productos metálicos|2019-11|WWW.LGORACKS.COM|19.49406475|-99.18459291|6 a 10 personas|6|10
6355|6695910|541810|54|6695910|09014484129000321000000000U4|SLANG SA DE CV|SLANG SA DE CV|CIUDAD DE MÉXICO|Benito Juárez||541810|Agencias de publicidad|2016-01|WWW.SLANG.COM.MX|19.39503746|-99.18856904|0 a 5 personas|0|5
6359|6199473|326110|55|6199473|09015326110000101001000000U9|MEXINEX|MEXINEX SA DE CV|CIUDAD DE MÉXICO|Cuauhtémoc|6450.0|326110|Fabricación de bolsas y películas de plástico flexible|2010-07||19.45967953|-99.15870221|31 a 50 personas|31|50
6371|812166|493120|56|812166|09006493120000032001019012M1|FRIO DE NEPAL|FRIO DE NEPAL SA DE CV|CIUDAD DE MÉXICO|Iztacalco|8500.0|493120|Almacenamiento con refrigeración|2010-07||19.40106374|-99.06649936|0 a 5 personas|0|5
6371|970699|493120|57|970699|09013493120000013001019012S7|FRIO SUR|FRIO DE NEPAL SA DE CV|CIUDAD DE MÉXICO|Xochimilco|16020.0|493120|Almacenamiento con refrigeración|2010-07||19.27777854|-99.13346851|6 a 10 personas|6|10
6373|8939623|461150|58|8939623|15003461150000241000000000U2|QUESOS EL PORTAL||MÉXICO|Aculco|50360.0|461150|Comercio al por menor de leche, otros productos lácteos y embutidos|2019-11||20.09983185|-99.82782281|0 a 5 personas|0|5
6373|2193918|461150|59|2193918|15121461150000021000000000U8|QUESOS LOS PORTALES||MÉXICO|Cuautitlán Izcalli|54714.0|461150|Comercio al por menor de leche, otros productos lácteos y embutidos|2010-07||19.67806904|-99.17857253|0 a 5 personas|0|5
6374|6258087|434211|60|6258087|09016434211000081000002596S6|FERRETEROS UNIDOS|FERRETEROS UNIDOS SA DE CV|CIUDAD DE MÉXICO|Miguel Hidalgo|11320.0|434211|Comercio al por mayor de cemento, tabique y grava|2010-07||19.44609502|-99.16976505|0 a 5 personas|0|5
6374|6258089|434211|61|6258089|09016434211000574000002596M0|FERRETEROS UNIDOS|FERRETEROS UNIDOS SA DE CV|CIUDAD DE MÉXICO|Miguel Hidalgo|11410.0|434211|Comercio al por mayor de cemento, tabique y grava|2010-07||19.45727634|-99.18318074|11 a 30 personas|11|30
6374|1119251|467111|62|1119251|11027467111001193000000000U3|FERRETERAS UNIDAS|FERRETERAS UNIDAS SA DE CV|GUANAJUATO|Salamanca|36740.0|467111|Comercio al por menor en ferreterías y tlapalerías|2010-07||20.57506763|-101.21276731|11 a 30 personas|11|30
6389|22981|465215|63|22981|01001465215000961000000000U2|SUPER MODA TIENDA DE TRAJES DE BAÑO||AGUASCALIENTES|Aguascalientes|20000.0|465215|Comercio al por menor de artículos y aparatos deportivos|2010-07||21.87928963|-102.29933022|0 a 5 personas|0|5
6389|20646|532281|64|20646|01001532220000011000000000U5|RENTA DE TRAJES MODA Y ESTILO||AGUASCALIENTES|Aguascalientes|20000.0|532281|Alquiler de prendas de vestir|2010-07||21.87961474|-102.28901145|0 a 5 personas|0|5
6389|7071817|315229|65|7071817|07089315229000421000000000S9|CONFECCIONES DE TRAJES FG MODA INTELIGENTE||CHIAPAS|Tapachula|30700.0|315229|Confección en serie de otra ropa exterior de materiales textiles|2019-11|WWW.MODAINTELIGENTE.COM.MX962|14.91074429|-92.26189387|0 a 5 personas|0|5
6389|620840|463214|66|620840|08037463211000331010000000U6|TRAJES DE MODA ETON|COMERCIALIZADORA ETON SA DE CV|CHIHUAHUA|Juárez|32000.0|463214|Comercio al por menor de disfraces, vestimenta regional y vestidos de novia|2010-07||31.67661415|-106.42404991|0 a 5 personas|0|5
6389|8625630|463214|67|8625630|09015463214012061000000000U4|TRAJES LA MODA||CIUDAD DE MÉXICO|Cuauhtémoc|6010.0|463214|Comercio al por menor de disfraces, vestimenta regional y vestidos de novia|2019-11|IXCA_CIEMFUEGOSHOTMAIL.COM|19.44028176|-99.13321875|0 a 5 personas|0|5
6389|1078515|532281|68|1078515|10005541490000011000000000U3|RENTA DE TRAJES MODA PARA HOMBRE||DURANGO|Durango|34210.0|532281|Alquiler de prendas de vestir|2010-07||24.0426106|-104.64512141|0 a 5 personas|0|5
6389|1325695|532281|69|1325695|11002532220000011000000000U1|CENTURY MODA RENTA DE TRAJES PARA TODA OCACION||GUANAJUATO|Acámbaro|38600.0|532281|Alquiler de prendas de vestir|2010-07||20.03561478|-100.72620596|0 a 5 personas|0|5
6389|1468929|465215|70|1468929|12001465215001221000000000S7|TRAJES DE BAÑO ONDA DE MAR ACAPULCO|ONDA MAR MODA SAPI DE CV|GUERRERO|Acapulco de Juárez|39879.0|465215|Comercio al por menor de artículos y aparatos deportivos|2010-07|WWW.ONDADEMAR.CO|16.77328264|-99.77623116|0 a 5 personas|0|5
6389|2028972|315224|71|2028972|15058315224000031000000000U2|MODAS REGIONALES Y TRAJES DE FANTASIA SIN NOMBRE||MÉXICO|Nezahualcóyotl|57100.0|315224|Confección en serie de disfraces y trajes típicos|2010-07||19.49159031|-99.05649307|0 a 5 personas|0|5
6389|2138528|463214|72|2138528|15033463214000321000000000U1|RENTA DE TRAJES Y VESTIDOS ALTA MODA||MÉXICO|Ecatepec de Morelos|55000.0|463214|Comercio al por menor de disfraces, vestimenta regional y vestidos de novia|2010-07||19.60066958|-99.04710973|0 a 5 personas|0|5
6389|7094467|532281|73|7094467|17006532281000011000000000U8|ALQUILER DE TRAJES LA MODA ELEGANTE|LA MODA ELEGANTE |MORELOS|Cuautla|62744.0|532281|Alquiler de prendas de vestir|2019-11||18.82032875|-98.95240372|0 a 5 personas|0|5
6389|7839250|314991|74|7839250|20067314991000521000000000U1|ELABORACION DE TRAJES ARELLANAS MODA TRADICIONAL||OAXACA|Oaxaca de Juárez|68025.0|314991|Confección, bordado y deshilado de productos textiles|2019-11||17.08275397|-96.6953468|0 a 5 personas|0|5
6389|3768442|463214|75|3768442|25001463211003291010000000U4|EUROPA MODA EN TRAJES||SINALOA|Ahome|81200.0|463214|Comercio al por menor de disfraces, vestimenta regional y vestidos de novia|2010-07||25.79074459|-108.99342738|0 a 5 personas|0|5
6389|8908893|532281|76|8908893|28009532281000041000000000U6|RENTA DE VESTIDOS Y TRAJES ZORY MODA||TAMAULIPAS|Ciudad Madero|89450.0|532281|Alquiler de prendas de vestir|2019-11||22.24349008|-97.84017399|0 a 5 personas|0|5
6393|8038371|325610|77|8038371|15106325610000251000000000S1|BONDEX SA DE CV||MÉXICO|Toluca|50010.0|325610|Fabricación de jabones, limpiadores y dentífricos|2019-11||19.30640756|-99.60897108|0 a 5 personas|0|5
6393|3613887|467115|78|3613887|22014467115002242000000000U3|BONDEX|BONDEX SA DE CV|QUERÉTARO|Querétaro|76148.0|467115|Comercio al por menor de artículos para la limpieza|2010-07||20.63200696|-100.4024468|6 a 10 personas|6|10
6394|6348073|315229|79|6348073|15057315229000635001000000U1|ACTION GROUP CO|ACTION GROUP CO SA DE CV|MÉXICO|Naucalpan de Juárez|53500.0|315229|Confección en serie de otra ropa exterior de materiales textiles|2010-07||19.46287778|-99.23352969|101 a 250 personas|101|250
6397|6866252|238330|80|6866252|09016238330000033001000000U3|GLOBAL WOODS|GLOBAL WOODS SA DE CV|CIUDAD DE MÉXICO|Miguel Hidalgo|11000.0|238330|Colocación de pisos flexibles y de madera|2019-04||19.424414|-99.204334|0 a 5 personas|0|5
6398|9290612|434225|81|9290612|19019434225000471000000000U1|GTEC|ILUMINACION |NUEVO LEÓN|San Pedro Garza García|66220.0|434225|Comercio al por mayor de equipo y material eléctrico|2020-11||25.6605509|-100.36755534|0 a 5 personas|0|5
6401|2073214|464121|82|2073214|15104464121000311000000000U7|OPTICAS LA UNIVERSAL||MÉXICO|Tlalnepantla de Baz|54030.0|464121|Comercio al por menor de lentes|2010-07||19.55581774|-99.19342708|0 a 5 personas|0|5
6401|3066656|464121|83|3066656|20067464121000821000000000U7|OPTICAS UNIVERSAL||OAXACA|Oaxaca de Juárez|68000.0|464121|Comercio al por menor de lentes|2010-07||17.05721477|-96.72570308|0 a 5 personas|0|5
6403|6200034|722515|84|6200034|09016722212002791000000000S7|LA CREPA PARISIENNE|GRUPO CORPORATIVO ALANCAR SA DE CV|CIUDAD DE MÉXICO|Miguel Hidalgo|11700.0|722515|Cafeterías, fuentes de sodas, neverías, refresquerías y similares|2010-07||19.40301712|-99.24294557|0 a 5 personas|0|5
6403|920596|722515|85|920596|09004722515000471000000000S0|LA CREPE PARISSIENNE|GRUPO CORPORATIVO ALANCAR SA DE CV|CIUDAD DE MÉXICO|Cuajimalpa de Morelos|5348.0|722515|Cafeterías, fuentes de sodas, neverías, refresquerías y similares|2014-12||19.36262855|-99.27443277|0 a 5 personas|0|5
6403|8979048|461190|86|8979048|14120461190005481000000000S8|LA CREPE PARISIENNE|GRUPO CORPORATIVO ALANCAR SA DE CV|JALISCO|Zapopan|45160.0|461190|Comercio al por menor de otros alimentos|2019-11|WWW.LAPARISIENNE.COM.MX|20.71250145|-103.37565702|0 a 5 personas|0|5
6405|1011609|461190|87|1011609|09004461190000851000000000U0|MERENGUES LITE AND LIGTH|LIGHT MANIA SA DE CV|CIUDAD DE MÉXICO|Cuajimalpa de Morelos|5129.0|461190|Comercio al por menor de otros alimentos|2010-07||19.38959278|-99.26006022|0 a 5 personas|0|5
6405|8347891|311820|88|8347891|15037311820000021000000000U6|LITE & LIGHT|LIGHT MANIA SA DE CV|MÉXICO|Huixquilucan|52764.0|311820|Elaboración de galletas y pastas para sopa|2019-11||19.39583433|-99.28902409|0 a 5 personas|0|5
6411|8939760|434221|89|8939760|13069434221000201000037801M2|BEFTCOM|BEFTCOM SA DE CV|HIDALGO|Tizayuca|43800.0|434221|Comercio al por mayor de materiales metálicos para la construcción y la manufactura|2019-11|WWW.BEFTCOM.COM.MX|19.82008002|-98.97078944|0 a 5 personas|0|5
6411|1622786|434222|90|1622786|13069434221000091000000000U7|BEFTCOM|BEFTCOM SA DE CV|HIDALGO|Tizayuca|43820.0|434222|Comercio al por mayor de productos químicos para la industria farmacéutica y para otro uso industrial|2010-07||19.81996572|-98.9708308|0 a 5 personas|0|5
6411|2200376|434221|91|2200376|15057434221000351000037801S8|BEFTCOM|BEFTCOM SA DE CV|MÉXICO|Naucalpan de Juárez|53950.0|434221|Comercio al por mayor de materiales metálicos para la construcción y la manufactura|2014-12|WWW.BEFTCOM.COM.MX|19.4286383|-99.22693384|0 a 5 personas|0|5
6419|6698740|435412|92|6698740|22014435412000271000000000U4|STILO CONCEPTO|STILO CONCEPTO SA DE CV|QUERÉTARO|Querétaro|76160.0|435412|Comercio al por mayor de mobiliario y equipo de oficina|2016-01|WWW.STILOCONCEPTOQUERETARO.COM|20.6071736|-100.37862696|0 a 5 personas|0|5
6425|8443604|112512|93|8443604|01007112512000031000000000U8|GRANJA ACUÍCOLA PABELLON S DE R.L MI DE CV|GRANJA ACUICOLA PABELLON S DE RL MI DE CV|AGUASCALIENTES|Rincón de Romos|20437.0|112512|Piscicultura y otra acuicultura, excepto camaronicultura|2019-11||22.16834667|-102.3448475|0 a 5 personas|0|5
6425|8624336|114119|94|8624336|01003114119000071000000000U5|MICHOACANEJO S DE RL MI DE CV|MICHOACANEJO S DE RL MI DE CV|AGUASCALIENTES|Calvillo|20860.0|114119|Pesca y captura de peces, crustáceos, moluscos y otras especies|2019-11||21.82179538|-102.76494632|0 a 5 personas|0|5
6425|8443689|114119|95|8443689|01003114119000061000000000U6|PESCADORES JJ RUIZ S DE RL MI DE CV|PESCADORES JJ RUIZ S DE RL MI DE CV|AGUASCALIENTES|Calvillo|20820.0|114119|Pesca y captura de peces, crustáceos, moluscos y otras especies|2019-11||21.91972151|-102.70109803|0 a 5 personas|0|5
6425|6166243|114119|96|6166243|01008114119000013001000000U6|SOCIEDAD DE PESCA  COMERCIAL Y DEPORTIVA DE SAN JOSE DE GRACIA|SOCIEDAD PISCICOLA COMERCIAL Y DEPORTIVA DE SAN JOSE DE GRACIA S DE PR DE RL|AGUASCALIENTES|San José de Gracia|20576.0|114119|Pesca y captura de peces, crustáceos, moluscos y otras especies|2010-07||22.14469|-102.41026|11 a 30 personas|11|30
6425|6711615|212324|97|6711615|01001212321000062011000000U1|TIIPSA TECNOLOGÍAS EN INGENIERÍA E INNOVACIÓN DE PROCESOS SUSTENTABLES DE AGUASCALIENTES|TIIPSA S DE RL DE CV|AGUASCALIENTES|Aguascalientes|20290.0|212324|Minería de sílice|2016-01||21.83311988|-102.28201673|11 a 30 personas|11|30
6425|19683|238210|98|19683|01001238290000072000000000U7|ABBA ENCLOSING MEETING|ABBA ENCLOSING MEETING S DE RL DE CV|AGUASCALIENTES|Aguascalientes|20280.0|238210|Instalaciones eléctricas en construcciones|2011-03||21.8553277|-102.30028616|0 a 5 personas|0|5
6425|8499775|238320|99|8499775|01001238320000101000000000U9|AGSTLA|AGSTLA S DE RL DE CV|AGUASCALIENTES|Aguascalientes|20115.0|238320|Trabajos de pintura y otros cubrimientos de paredes|2019-11||21.92855063|-102.30387818|0 a 5 personas|0|5
6425|6142429|236111|100|6142429|01001236111000561000000000U9|ANDA DESARROLLADORA|ANDA DESARROLLADORA S DE RL DE CV|AGUASCALIENTES|Aguascalientes|20326.0|236111|Edificación de vivienda unifamiliar|2020-11||21.87981797|-102.33590484|51 a 100 personas|51|100
6425|6218|238190|101|6218|01001238190000051001000000U3|ARC S INGENIERÍA||AGUASCALIENTES|Aguascalientes|20290.0|238190|Otros trabajos en exteriores|2010-07||21.8599835|-102.28707291|11 a 30 personas|11|30
6425|9283618|236112|102|9283618|01001236112000233000000000U3|CONSORCIO SAN IGNACIO S.A DE C.V|CONSORCIO SAN IGNACIO SA DE CV|AGUASCALIENTES|Aguascalientes||236112|Edificación de vivienda multifamiliar|2020-11||21.90233433|-102.34553278|11 a 30 personas|11|30
6425|9317118|236221|103|9317118|01001236221001541000000000U6|CONSTRUCTORA GC MASTER|GC MASTER S DE RL DE CV|AGUASCALIENTES|Aguascalientes|20130.0|236221|Edificación de inmuebles comerciales y de servicios, excepto la supervisión|2020-11||21.91598155|-102.30907701|0 a 5 personas|0|5
6425|9286452|236111|104|9286452|01001221121000023000000000U6|CONSTRUCTORA REG S A DE C V||AGUASCALIENTES|Aguascalientes|20020.0|236111|Edificación de vivienda unifamiliar|2020-11||21.89845523|-102.29793524|11 a 30 personas|11|30
6425|6142378|236221|105|6142378|01001236221000853000000000U7|DESARROLLADORA EN SISTEMAS DE EDIFICACIONES|DESARROLLADORA EN SISTEMAS DE EDIFICACIONES S DE RL DE CV|AGUASCALIENTES|Aguascalientes||236221|Edificación de inmuebles comerciales y de servicios, excepto la supervisión|2014-12||21.88810059|-102.27341118|11 a 30 personas|11|30
6425|9320141|237999|106|9320141|01001237999000193000000000U0|DESARROLLADORA Y CONSTRUCTORA JONCO S A DE C V|DESARROLLADORA Y CONSTRUCTORA JONCO SA DE CV|AGUASCALIENTES|Aguascalientes||237999|Otras construcciones de ingeniería civil|2020-11||21.91696343|-102.31371631|11 a 30 personas|11|30
6425|9122478|238210|107|9122478|01001238210000703000000000U5|ELECTRICA AMCO S DE RL DE CV|ELECTRICA AMCO S DE RL DE CV|AGUASCALIENTES|Aguascalientes|20270.0|238210|Instalaciones eléctricas en construcciones|2019-11||21.86998616|-102.29021424|11 a 30 personas|11|30
6425|6862090|236211|108|6862090|01001236211000315001000000U8|ESTRUCTURAS Y CONSTRUCCIONES HAASO S A DE C V|ESTRUCTURAS Y CONSTRUCCIONES HAASO SA DE CV|AGUASCALIENTES|Aguascalientes|20126.0|236211|Edificación de naves y plantas industriales, excepto la supervisión|2019-04||21.92065986|-102.27873378|11 a 30 personas|11|30
6425|33023|236211|109|33023|01001238210000393010000000U5|GRUPO CONSTRUCTOR BUGACHI S. DE R.L. DE C.V.|GRUPO CONSTRUCTOR BUGACHI S DE RL DE CV|AGUASCALIENTES|Aguascalientes|20270.0|236211|Edificación de naves y plantas industriales, excepto la supervisión|2014-12||21.86740374|-102.29437381|11 a 30 personas|11|30
6425|6142281|236111|110|6142281|01001236111000942001000000U1|GRUPO REMAGUI CONSTRUCTOR S DE RL DE CV|GRUPO REMAGUI CONSTRUCTOR S DE RL DE CV|AGUASCALIENTES|Aguascalientes|20120.0|236111|Edificación de vivienda unifamiliar|2010-07||21.88918421|-102.31631706|51 a 100 personas|51|100
6425|9313210|238210|111|9313210|01005237121000021000000000U3|LA LAGUNA RAMONES Y PIPELINES S.A DE C.V||AGUASCALIENTES|Jesús María|20900.0|238210|Instalaciones eléctricas en construcciones|2020-11||21.96214569|-102.34439079|0 a 5 personas|0|5
6425|9317117|237212|112|9317117|01001237212000781000000000U6|PLANCARTE CONSTRUCCIONES S A DE C V||AGUASCALIENTES|Aguascalientes|20120.0|237212|Construcción de obras de urbanización|2020-11||21.92157639|-102.31417634|0 a 5 personas|0|5
6425|9321075|236111|113|9321075|01001236111003123000000000U5|RAMIREZ Y FLORES CONTRUCCIONES S.DE R.L DE C.V|RAMIREZ Y FLORES CONSTRUCCIONES S. DE R.L C.V |AGUASCALIENTES|Aguascalientes||236111|Edificación de vivienda unifamiliar|2020-11||21.91637553|-102.24054938|11 a 30 personas|11|30
6425|9317119|236221|114|9317119|01001236221001551000000000U2|REVIRESCO CONSTRUCCIONES|REVIRESCO CONSTRUCCIONES S DE RL DE CV|AGUASCALIENTES|Aguascalientes|20120.0|236221|Edificación de inmuebles comerciales y de servicios, excepto la supervisión|2020-11||21.92463702|-102.30408781|0 a 5 personas|0|5
6425|6879420|238290|115|6879420|01001238290000152001000000U7|V & A CONSTRUCCIONES Y PROYECTOS S A DE C V|V&A CONSTRUCCIONES Y PROYECTOS SA DE CV|AGUASCALIENTES|Aguascalientes|20240.0|238290|Otras instalaciones y equipamiento en construcciones|2019-04||21.87271325|-102.28836995|0 a 5 personas|0|5
6425|10169|312112|116|10169|01001312112000101000000000S9|AGUA ULTRALIGERA|ULTRA LIGERA S DE RL DE CV|AGUASCALIENTES|Aguascalientes|20133.0|312112|Purificación y embotellado de agua|2010-07||21.88788286|-102.24945289|0 a 5 personas|0|5
6425|6282301|312112|117|6282301|01001312112000861002006096S8|AGUAS AGUASCALIENTES|ENVASADORA DE AGUAS EN MEXICO S DE RL DE CV|AGUASCALIENTES|Aguascalientes|20290.0|312112|Purificación y embotellado de agua|2010-07||21.8413813|-102.28339145|101 a 250 personas|101|250
6425|6866620|311212|118|6866620|01001311999000121011025357S8|AIS BAKERY|AIS LOGISTICS MEXICO S DE RL DE CV|AGUASCALIENTES|Aguascalientes|20290.0|311212|Elaboración de harina de trigo|2019-04||21.79705604|-102.28056777|31 a 50 personas|31|50
6425|6282598|312111|119|6282598|01001312111000101000008191S1|BEBIDAS MUNDIALES AGUASCALIENTES|BEBIDAS MUNDIALES S DE RL DE CV|AGUASCALIENTES|Aguascalientes|20110.0|312111|Elaboración de refrescos y otras bebidas no alcohólicas|2014-12|WWW.ARCACONTAL.COM|21.93342946|-102.2977554|0 a 5 personas|0|5
6425|6281309|312111|120|6281309|01001312111000077000008191S3|BEBIDAS MUNDIALES SUC. 3901 PLANTA AGUASCALIENTES|BEBIDAS MUNDIALES S DE RL DE CV|AGUASCALIENTES|Aguascalientes|20394.0|312111|Elaboración de refrescos y otras bebidas no alcohólicas|2014-12||21.75062244|-102.27584337|251 y más personas|251|inf
6425|6280910|312111|121|6280910|01001312111000057000008191S5|BEBIDAS MUNDIALES SUC. 3907 PLANTA LAS TROJES|BEBIDAS MUNDIALES S DE RL DE CV|AGUASCALIENTES|Aguascalientes|20110.0|312111|Elaboración de refrescos y otras bebidas no alcohólicas|2010-07||21.93789297|-102.29488339|251 y más personas|251|inf
6425|6281876|312112|122|6281876|01001312112001077002011308S0|BEPUSA PLANTA AGUASCALIENTES|BEBIDAS PURIFICADAS S DE RL DE CV|AGUASCALIENTES|Aguascalientes|20290.0|312112|Purificación y embotellado de agua|2010-07|WWW.GEPP.COM.MX|21.84020354|-102.28039905|101 a 250 personas|101|250
6425|35079|314120|123|35079|01001314120001091000000000U2|BLANCOS MOY S||AGUASCALIENTES|Aguascalientes|20040.0|314120|Confección de cortinas, blancos y similares|2014-12||21.89056927|-102.30861717|0 a 5 personas|0|5
6425|8879341|311812|124|8879341|01001311812006121000038171S7|CEDIS AGUASCALIENTES|GRUPO PAN DE PALA S DE RL DE CV|AGUASCALIENTES|Aguascalientes|20116.0|311812|Panificación tradicional|2019-11||21.91681915|-102.29233907|0 a 5 personas|0|5
6425|6281802|315229|125|6281802|01001316991000031002000114S1|CENTRO DE DISTRIBUCIÓN|INDUSTRIAS DEL INTERIOR S DE RL DE CV|AGUASCALIENTES|Aguascalientes|20290.0|315229|Confección en serie de otra ropa exterior de materiales textiles|2011-03||21.83515865|-102.28145606|51 a 100 personas|51|100
6425|8942|311520|126|8942|01001461170003102000000000S3|DANNY YO AGUASCALIENTES S.A DE C.V||AGUASCALIENTES|Aguascalientes|20150.0|311520|Elaboración de helados y paletas|2010-07||21.85052803|-102.29261535|6 a 10 personas|6|10
6425|6282184|312111|127|6282184|01001312111000011000008191S2|DEPOSITO DE BEBIDAS MUNDIALES|BEBIDAS MUNDIALES S DE RL DE CV|AGUASCALIENTES|Aguascalientes|20135.0|312111|Elaboración de refrescos y otras bebidas no alcohólicas|2010-07|WWW.ARCACONTAL.COM|21.91143988|-102.2958963|0 a 5 personas|0|5
6425|6869923|312111|128|6869923|01001431211000256011017741S7|DISTRIBUIDORA ARCA CONTINENTAL|DISTRIBUIDORA ARCA CONTINENTAL S DE RL DE CV|AGUASCALIENTES|Aguascalientes|20110.0|312111|Elaboración de refrescos y otras bebidas no alcohólicas|2019-04|WWW.ARCACONTAL.COM|21.93863822|-102.29180978|251 y más personas|251|inf
6425|6282330|311611|129|6282330|01005431122000016012000179S5|DIVISIÓN COMERCIAL NUTRYPOLLO|AGROINDUSTRIAS QUESADA S DE RL DE CV|AGUASCALIENTES|Jesús María|20355.0|311611|Matanza de ganado, aves y otros animales comestibles|2010-07|WWW.NUTRYPOLLO.COM.MX|21.96381049|-102.28268363|11 a 30 personas|11|30
6425|6281391|311611|130|6281391|01005311611000025001000179S3|DIVISIÓN RASTRO NUTRYPOLLO|AGROINDUSTRIAS QUESADA S DE RL DE CV|AGUASCALIENTES|Jesús María|20355.0|311611|Matanza de ganado, aves y otros animales comestibles|2010-07|WWW.NUTRYPOLLO.COM.MX|21.96385527|-102.2827824|11 a 30 personas|11|30
6425|8901363|311110|131|8901363|01005311110000072000000179S8|DIVISIÓN RASTRO NUTRYPOLLO|AGROINDUSTRIAS QUESADA S DE RL DE CV|AGUASCALIENTES|Jesús María|20358.0|311110|Elaboración de alimentos para animales|2019-11||21.96476308|-102.28365377|11 a 30 personas|11|30
6425|8624699|311513|132|8624699|01001311513000881000000000U6|ELABORACION PRODUCTOS LACTEOS Y CARNICOS|PRODUCTOS AGROECUARIOS CASA VILLALOBOS S DE RL |AGUASCALIENTES|Aguascalientes|20237.0|311513|Elaboración de derivados y fermentos lácteos|2019-11||21.86922032|-102.3122175|0 a 5 personas|0|5
6425|9345831|312111|133|9345831|01007312111000011000000000U9|EMBOTELLADORA COCA COLA|BEBIDAS MUNDIALES S DE RL DE CV|AGUASCALIENTES|Rincón de Romos||312111|Elaboración de refrescos y otras bebidas no alcohólicas|2021-05||22.22772324|-102.32199245|0 a 5 personas|0|5
6425|6282596|312111|134|6282596|01001312111000111000008191S0|EMBOTELLADORA DE BEBIDAS MUNDIALES S DE RL DE CV|BEBIDAS MUNDIALES S DE RL DE CV|AGUASCALIENTES|Aguascalientes|20126.0|312111|Elaboración de refrescos y otras bebidas no alcohólicas|2014-12|WWW.ARCACONTINENTAL.COM|21.93121174|-102.259629|0 a 5 personas|0|5
6425|23968|315229|135|23968|01001315229000291000000015S7|ESTACIONAMIENTO INDUSTRIAS JOBAR|INDUSTRIAS JOBAR S DE RL DE CV|AGUASCALIENTES|Aguascalientes|20240.0|315229|Confección en serie de otra ropa exterior de materiales textiles|2010-07||21.87247625|-102.29211226|0 a 5 personas|0|5
6425|984|311340|136|984|01003311340000043000000000U7|FABRICA DE DULCES LA FLOR DE CALVILLO|FLOCAL S DE RL DE CV|AGUASCALIENTES|Calvillo|20834.0|311340|Elaboración de dulces, chicles y productos de confitería que no sean de chocolate|2011-03||21.88205451|-102.67451938|11 a 30 personas|11|30
6425|8500315|316999|137|8500315|01001316999000433000000000S2|FABRICACION DE GUANTES CI REX|CI REX S DE RL DE CV|AGUASCALIENTES|Aguascalientes|20210.0|316999|Fabricación de otros productos de cuero, piel y materiales sucedáneos|2019-11||21.86899666|-102.31540651|11 a 30 personas|11|30
6425|6873805|311611|138|6873805|01011311611000034001000000U3|GRANJA JESSY|GRANJA JESSY S DE RL DE CV|AGUASCALIENTES|San Francisco de los Romo|20305.0|311611|Matanza de ganado, aves y otros animales comestibles|2019-04||22.06471882|-102.2596947|51 a 100 personas|51|100
6425|18656|313220|139|18656|01001313220000022001000000U7|HERMANOS AGUILERA S DE RL|HERMANOS AGUILERA S DE RL |AGUASCALIENTES|Aguascalientes|20000.0|313220|Fabricación de telas angostas de tejido de trama y pasamanería|2010-07|WWW.HACINTAS.COM|21.88827469|-102.28921365|6 a 10 personas|6|10
6425|6282228|315229|140|6282228|01007315229000037000000114S1|INDUSTRIAS DEL INTERIOR S DE RL DE CV  PLANTA 2000|INDUSTRIAS DEL INTERIOR S DE RL DE CV|AGUASCALIENTES|Rincón de Romos|20400.0|315229|Confección en serie de otra ropa exterior de materiales textiles|2010-07||22.22366273|-102.30736476|251 y más personas|251|inf
6425|6281349|315229|141|6281349|01001315229001567000000114M9|INDUSTRIAS DEL INTERIOR S DE RL DE CV PLANTA GEORGINA|INDUSTRIAS DEL INTERIOR S DE RL DE CV|AGUASCALIENTES|Aguascalientes|20290.0|315229|Confección en serie de otra ropa exterior de materiales textiles|2010-07||21.83326015|-102.2809603|251 y más personas|251|inf
6425|6282229|315229|142|6282229|01001315229000891000000114S4|INDUSTRIAS DEL INTERIOR S DE RL DE CV PLANTA LAVAMEX|INDUSTRIAS DEL INTERIOR S DE RL DE CV|AGUASCALIENTES|Aguascalientes|20340.0|315229|Confección en serie de otra ropa exterior de materiales textiles|2010-07||21.80339685|-102.28400675|251 y más personas|251|inf
6426|6703245|621511|143|6703245|14039621511003851000003549S0|170 LABORATORIO DEL CHOPO AV MEXICO|GRUPO DIAGNOSTICO MEDICO PROA SA DE CV|JALISCO|Guadalajara|44690.0|621511|Laboratorios médicos y de diagnóstico del sector privado|2016-01|WWW.CHOPO.COM.MX|20.67839274|-103.39757379|0 a 5 personas|0|5
6426|9001521|621511|144|9001521|18017621511000731000000000S9|LABORATORIO GRUPO GENOMICA MOLECULAR DE MEXICO|GRUPO GENOMICA MOLECULAR DE MEXICO SA DE CV|NAYARIT|Tepic|63110.0|621511|Laboratorios médicos y de diagnóstico del sector privado|2019-11||21.51920628|-104.91767326|0 a 5 personas|0|5
6426|8201963|621511|145|8201963|18017621511000682000000000S4|LABORATORIO GRUPO GENOMICA MOLECULAR DE MEXICO|GRUPO GENOMICA MOLECULAR DE MEXICO SA DE CV|NAYARIT|Tepic|63000.0|621511|Laboratorios médicos y de diagnóstico del sector privado|2019-11||21.51397846|-104.89474113|6 a 10 personas|6|10
6426|8663329|339111|146|8663329|19039339111000581000048908S3|LABORATORIO DENTAL|GRUPO DENTAL MEXICO SA DE CV|NUEVO LEÓN|Monterrey|64000.0|339111|Fabricación de equipo no electrónico para uso médico, dental y para laboratorio|2019-11||25.6800218|-100.31969619|0 a 5 personas|0|5
6426|3592045|621511|147|3592045|22014621511001342002003549S5|166  LABORATORIO MÉXICO DEL CHOPO 5 DE FEBRERO|GRUPO DIAGNOSTICO MEDICO PROA SA DE CV|QUERÉTARO|Querétaro|76138.0|621511|Laboratorios médicos y de diagnóstico del sector privado|2014-12|WWW.CHOPO.COM.MX|20.60744936|-100.41874031|11 a 30 personas|11|30
6426|3836410|541380|148|3836410|25006541380000114000038193M2|GRUPO PRIMUS|PRIMUS LABORATORIOS DE MEXICO S DE RL DE CV|SINALOA|Culiacán|80020.0|541380|Laboratorios de pruebas|2010-07|WWW.PRIMUSLABS.COM|24.814559|-107.3980573|31 a 50 personas|31|50
6428|888484|433420|149|888484|09015433420000341000000000S4|EDITORIAL EPOCA|EDITORIAL EPOCA SA DE CV|CIUDAD DE MÉXICO|Cuauhtémoc|6000.0|433420|Comercio al por mayor de libros|2014-12|EDITORIALEPOCA.COM.MX|19.43321338|-99.1331239|0 a 5 personas|0|5
6428|1001607|433420|150|1001607|09015433420000361000000000U2|LIBRERÍA ÉPOCA|EDITORIAL EPOCA SA DE CV|CIUDAD DE MÉXICO|Cuauhtémoc|6000.0|433420|Comercio al por mayor de libros|2010-07||19.43692348|-99.13792245|0 a 5 personas|0|5
6430|6201994|466211|151|6201994|10005466211000543001000000S6|PROVEEDOR DE EQUIPOS DE COMPUTO E IMPRESIONES PRODECO|PRODECO SA DE CV|DURANGO|Durango|34000.0|466211|Comercio al por menor de mobiliario, equipo y accesorios de cómputo|2010-07||24.03535715|-104.66158243|0 a 5 personas|0|5
6430|6766695|435411|152|6766695|11020463215005562011000000U3|COMERCIALIZADORA DE PRODUCTOS DE COMPUTO NOMBRE PROVEEDOR PRODUCTOS Y SERVICIOS DE MÉXICO|PROVEEDURIA DE  PRODUCTOS Y SERVICIOS DE MÉXICO SA DE CV|GUANAJUATO|León|37290.0|435411|Comercio al por mayor de mobiliario, equipo, y accesorios de cómputo|2016-10||21.10865726|-101.62476816|51 a 100 personas|51|100
6430|3768275|466211|153|3768275|25001466211000262001000000U5|VENTA DE EQUIPOS DE COMPUTO EPSILION COMPUTACION|PROVEEDORA EPSILON DEL NOROESTE SA DE CV|SINALOA|Ahome|81200.0|466211|Comercio al por menor de mobiliario, equipo y accesorios de cómputo|2010-07||25.79174445|-108.99072726|6 a 10 personas|6|10
6434|867721|466111|154|867721|09015466111004581000000000U6|TIENDA DE MUEBLES MI QUERIDA JACARANDA|COUZADA SA DE CV|CIUDAD DE MÉXICO|Cuauhtémoc|6760.0|466111|Comercio al por menor de muebles para el hogar|2010-07|WWW.MIQUERIDAJACARANDA.COM.MX|19.40075953|-99.16787977|0 a 5 personas|0|5
6437|8564845|812110|155|8564845|09010812110014961000000000U2|MAKING BEAUTY|CENTRO DE BELLEZA MAKING BEUTY |CIUDAD DE MÉXICO|Álvaro Obregón|1000.0|812110|Salones y clínicas de belleza y peluquerías|2019-11||19.34695054|-99.18867686|0 a 5 personas|0|5
6437|9291888|812110|156|9291888|15037812110006171000000000U3|MAKING BEAUTY SALON|MAKING BEAUTY SA DE CV|MÉXICO|Huixquilucan|52780.0|812110|Salones y clínicas de belleza y peluquerías|2020-11|WWW.MAKINGBEAUTY.COM|19.41100901|-99.25085107|0 a 5 personas|0|5
6437|9169831|812110|157|9169831|22014812110039321000000000S5|MAKING BEAUTY LASH & BISOR ESTUDIO|MAKING BEAUTY SA DE CV|QUERÉTARO|Querétaro|76230.0|812110|Salones y clínicas de belleza y peluquerías|2019-11|WWW.MAKINGBEAUTY.COM.MX|20.69134045|-100.44444989|0 a 5 personas|0|5
6444|895420|541510|158|895420|09015541510003301000000000U2|GQ DATA NET|GQ DATA NET SA DE CV|CIUDAD DE MÉXICO|Cuauhtémoc|6500.0|541510|Servicios de diseño de sistemas de cómputo y servicios relacionados|2014-12|WWW.GQDATANET.COM|19.42660845|-99.16934622|0 a 5 personas|0|5
6446|6155388|492110|159|6155388|09015492110000151000000000U2|SERVICIO DE PAQUETERIA MAIL BOXES ETC|MULTISERVICIO TREVI S DE RL DE CV|CIUDAD DE MÉXICO|Cuauhtémoc|6600.0|492110|Servicios de mensajería y paquetería foránea|2010-07|WWW.MBE.MX|19.42366655|-99.16605094|0 a 5 personas|0|5
6447|6325375|541810|160|6325375|09015541810003013000000000U7|DE HARO PUBLICIDAD, S.A. DE C.V.|DE HARO PUBLICIDAD SA DE CV|CIUDAD DE MÉXICO|Cuauhtémoc|6600.0|541810|Agencias de publicidad|2010-07|WWW.DEHARO.COM.MX|19.4274602|-99.16557099|31 a 50 personas|31|50
6449|8442155|541510|161|8442155|09014541510005361000000000U7|COBALT BOND|COBALT BOND SA DE CV|CIUDAD DE MÉXICO|Benito Juárez|3810.0|541510|Servicios de diseño de sistemas de cómputo y servicios relacionados|2019-11||19.39467376|-99.17343953|0 a 5 personas|0|5
6458|744998|326191|162|744998|09007326191000223001000000U8|FABRICA DE PIEZAS DE PLASTICO APISA PLASTICOS|APIZA PLASTICOS DE INGENIERIA SA DE CV|CIUDAD DE MÉXICO|Iztapalapa|9030.0|326191|Fabricación de productos de plástico para el hogar con y sin reforzamiento|2010-07||19.38190394|-99.08887088|11 a 30 personas|11|30
6461|820812|467113|163|820812|09005467113000121001000000U1|PINTURAS COMEX|PINTURAS CYZ SA DE CV|CIUDAD DE MÉXICO|Gustavo A. Madero|7900.0|467113|Comercio al por menor de pintura|2010-07||19.44977768|-99.05780738|6 a 10 personas|6|10
6466|9163758|238311|164|9163758|04003238311000051000000000U8|INGENIERIA INTEGRAL ESPECIALIZADA EN SERVICIOS SUMINISTROS Y CONSTRUCCIONES AS DE CV||CAMPECHE|Carmen|24190.0|238311|Colocación de muros falsos y aislamiento|2019-11|WWW.DOCER.COM.MX|18.64739538|-91.81131726|0 a 5 personas|0|5
6466|9329841|237212|165|9329841|04003237212000153000000000S3|INGENIERIA INTEGRAL ESPECIALIZADA EN SERVICIOS SUMINISTROS Y CONSTRUCCIONES SA DE CV|INGENIERIA INTEGRAL ESPECIALIZADA EN SERVICIOS SUMINISTROS Y CONSTRUCCIONES SA DE CV|CAMPECHE|Carmen||237212|Construcción de obras de urbanización|2020-11||18.65931987|-91.81766016|11 a 30 personas|11|30
6466|6143037|237312|166|6143037|04003236221000103011000000U0|INGENIERIA INTEGRAL ESPECIALIZADA EN SERVICIOS, SUMINISTROS Y CONSTRUCCIONES SA DE CV|INGENIERIA INTEGRAL ESPECIALIZADA EN SERVICIOS SUMINISTROS Y CONSTRUCCIONES SA DE CV|CAMPECHE|Carmen|24150.0|237312|Construcción de carreteras, puentes y similares|2010-07||18.65007076|-91.79172719|6 a 10 personas|6|10
6466|8233487|541711|167|8233487|04003541711000043000000000S8|SSIE|SUMINISTROS Y SERVICIOS INTEGRALES ESPECIALIZADOS SA DE CV|CAMPECHE|Carmen|24118.0|541711|Servicios de investigación científica y desarrollo en ciencias naturales y exactas, ingeniería, y ciencias de la vida, prestados por el sector privado|2019-11|WWW.GRUPO-SSE.COM|18.65596061|-91.81901771|11 a 30 personas|11|30
6466|697013|541330|168|697013|09017541330000074001000000U7|SUMINISTROS Y SERVICIOS INTEGRALES ESPECIALIZADOS|SUMINISTROS Y SERVICIOS INTEGRALES ESPECIALIZADOS SA DE CV|CIUDAD DE MÉXICO|Venustiano Carranza|15700.0|541330|Servicios de ingeniería|2014-12|WWW.GRUPO-SSE.COM|19.42281457|-99.09056991|11 a 30 personas|11|30
6467|658813|468211|169|658813|09006468211001541000053200M8|AUDIO SHOT|AUDIO SHOT S DE RL DE CV|CIUDAD DE MÉXICO|Iztacalco|8840.0|468211|Comercio al por menor de partes y refacciones nuevas para automóviles, camionetas y camiones|2012-06||19.37732243|-99.13170753|0 a 5 personas|0|5
6467|758219|468211|170|758219|09017468211002281001053200S7|AUTOBOUTIQUE CAR FIX JAGUAR|AUDIO SHOT SA DE CV|CIUDAD DE MÉXICO|Venustiano Carranza|15900.0|468211|Comercio al por menor de partes y refacciones nuevas para automóviles, camionetas y camiones|2010-07||19.41535309|-99.1040445|6 a 10 personas|6|10
6467|748509|811199|171|748509|09017811199000711000053200S6|AUDIO SHOT S. DE R.L DE C.V||CIUDAD DE MÉXICO|Venustiano Carranza|15000.0|811199|Otros servicios de reparación y mantenimiento de automóviles y camiones|2012-06||19.40859321|-99.08980805|0 a 5 personas|0|5
6467|748465|811199|172|748465|09017811199000701000053200S7|AUTO BOUTIQUE JAGUAR|AUDIO SHOT SC DE RL DE CV|CIUDAD DE MÉXICO|Venustiano Carranza|15000.0|811199|Otros servicios de reparación y mantenimiento de automóviles y camiones|2012-06||19.41167989|-99.08768426|0 a 5 personas|0|5
6467|755494|811199|173|755494|09017811199000601000053200S9|OTROS SERVICIOS DE REPARACIÓN Y MANTENIMIENTO DE AUTOMÓVILES Y CAMIONES|AUDIO SHOT |CIUDAD DE MÉXICO|Venustiano Carranza|15900.0|811199|Otros servicios de reparación y mantenimiento de automóviles y camiones|2010-07|WWW.AUDIOSHOT.COM.MX|19.41220067|-99.10659665|0 a 5 personas|0|5
6467|748486|811199|174|748486|09017811199000691000000000U0|TUNNING SHOP|AUDIO SHOT |CIUDAD DE MÉXICO|Venustiano Carranza|15000.0|811199|Otros servicios de reparación y mantenimiento de automóviles y camiones|2010-07||19.41116182|-99.08819406|0 a 5 personas|0|5
6469|201434|468213|175|201434|04009468213000031000000000U6|DISTRIBUIDORA RJOLDI|DISTRIBUIDORA RJOLDI SA DE CV|CAMPECHE|Escárcega|24350.0|468213|Comercio al por menor de llantas y cámaras para automóviles, camionetas y camiones|2010-07||18.60639557|-90.73941239|0 a 5 personas|0|5
6469|3616353|468213|176|3616353|23004468213000041000000000S3|DISTRIBUIDORA RJOLDI|DISTRIBUIDORA RJOLDI SA DE CV|QUINTANA ROO|Othón P. Blanco|77010.0|468213|Comercio al por menor de llantas y cámaras para automóviles, camionetas y camiones|2010-07||18.51605566|-88.28783449|0 a 5 personas|0|5
6472|6865534|431121|177|6865534|09006431121000093001000000U6|CARNES FINAS LA UNION|CARNES FINAS LA UNION SA DE CV|CIUDAD DE MÉXICO|Iztacalco|8500.0|431121|Comercio al por mayor de carnes rojas|2019-04||19.40132129|-99.06643721|11 a 30 personas|11|30
6472|6718332|461110|178|6718332|19046461110018351000000000U8|CARNES FINAS UNIÓN|REPRESENTACIONES Y DISTRIBUCIONES UNION SA DE CV|NUEVO LEÓN|San Nicolás de los Garza|66473.0|461110|Comercio al por menor en tiendas de abarrotes, ultramarinos y misceláneas|2016-01||25.71579116|-100.22375887|0 a 5 personas|0|5
6472|3032774|461121|179|3032774|19046461121001482001000000U7|CARNES FINAS UNION||NUEVO LEÓN|San Nicolás de los Garza|66473.0|461121|Comercio al por menor de carnes rojas|2010-07||25.71565312|-100.23513754|0 a 5 personas|0|5
6474|3501547|327910|180|3501547|21153434229000011000000000U0|DIAMANT AGUILA MEXICANA||PUEBLA|Tecali de Herrera|75240.0|327910|Fabricación de productos abrasivos|2010-07||18.90105676|-97.96643113|6 a 10 personas|6|10
6474|8664423|435220|181|8664423|21169435220000021000000000S3|TIENDA DE VENTA DE ACCESORIOS PARA MAQUINAS CORTADORAS DIAMANT AGUILA MEXICANA|DIAMAN AGUILA MEXICANA SA DE CV|PUEBLA|Tepexi de Rodríguez|74690.0|435220|Comercio al por mayor de maquinaria y equipo para la industria manufacturera|2019-11||18.57715915|-97.92660035|0 a 5 personas|0|5
6476|739967|463214|182|739967|09005463310001581000000000S1|MIGUELITO LINDAVISTA|MIGUELITO LINDAVISTA SA DE CV|CIUDAD DE MÉXICO|Gustavo A. Madero|7300.0|463214|Comercio al por menor de disfraces, vestimenta regional y vestidos de novia|2010-07|WWW.MIGUELITO.COM.MX|19.49174141|-99.13828832|0 a 5 personas|0|5
6476|2208771|463211|183|2208771|15057463211007861000000000U4|MIGUELITO|MIGUELITO LINDAVISTA SA DE CV|MÉXICO|Naucalpan de Juárez|53100.0|463211|Comercio al por menor de ropa, excepto de bebé y lencería|2014-12|MIGUELITO.MX|19.50935467|-99.23703116|0 a 5 personas|0|5
6478|6308267|315222|184|6308267|09007315222000095000000000U6|RUPIA|RUPIA SA DE CV|CIUDAD DE MÉXICO|Iztapalapa|9310.0|315222|Confección en serie de camisas|2010-07||19.37491068|-99.06751643|51 a 100 personas|51|100
6479|9319212|236112|185|9319212|14008236112000031000000000U3|CASAS PRACTICAS EDIFICACIONES PREFABRICADAS||JALISCO|Arandas|47180.0|236112|Edificación de vivienda multifamiliar|2020-11|WWW.CASASPRACTICAS.COM|20.70642776|-102.37441757|0 a 5 personas|0|5
6481|719714|461130|186|719714|09007461130044053001000000U0|BODEGA DE FRUTAS YUDIAN TELOXA SA DE CV||CIUDAD DE MÉXICO|Iztapalapa|9410.0|461130|Comercio al por menor de frutas y verduras frescas|2014-12||19.37365784|-99.0947534|11 a 30 personas|11|30
6482|1045121|323119|187|1045121|09011323119000563000000000U3|VISION GRAFICA Y TERMOFORMADO|VISION GRAFICA Y TERMOFORMADO |CIUDAD DE MÉXICO|Tláhuac|13200.0|323119|Impresión de formas continuas y otros impresos|2010-07|WWW.VISIONGRAFICA.COM.MX|19.29657675|-99.04290457|11 a 30 personas|11|30
6483|6730377|434225|188|6730377|15121434225000333000000000U1|ROMIDA AUTOMATION SA DE CV|ROMIDA AUTOMATION SA DE CV|MÉXICO|Cuautitlán Izcalli|54712.0|434225|Comercio al por mayor de equipo y material eléctrico|2016-10||19.6839844|-99.18953163|11 a 30 personas|11|30
6484|683722|811119|189|683722|09002811119001173000000000U8|CLUTCH Y FRENOS SALCEDO|COMERCIALIZADORA RIVEDEP SA DE CV|CIUDAD DE MÉXICO|Azcapotzalco|2050.0|811119|Otras reparaciones mecánicas de automóviles y camiones|2014-12|WWW.COMERCIALIZADORARIVEDEP.COM|19.47863079|-99.18415637|11 a 30 personas|11|30
6490|6733111|541810|190|6733111|09016541810003593001000000U6|ALVARADO MOLINA||CIUDAD DE MÉXICO|Miguel Hidalgo|11950.0|541810|Agencias de publicidad|2016-10||19.39320315|-99.23939191|31 a 50 personas|31|50
6493|8536035|311812|191|8536035|09003311812002994000019005S9|EL BOLLO CAFETALES|DISTRIBUIDORA EL BOLLO CAFETALES SA DE CV|CIUDAD DE MÉXICO|Coyoacán|4970.0|311812|Panificación tradicional|2019-11||19.30442091|-99.1126663|31 a 50 personas|31|50
6493|6768939|311812|192|6768939|09013311812002202001019005S6|EL BOLLO PANIFICADORA|DISTRIBUIDORA EL BOLLO CAFETALES SA DE CV|CIUDAD DE MÉXICO|Xochimilco|16010.0|311812|Panificación tradicional|2016-10||19.27747491|-99.11832442|11 a 30 personas|11|30
6493|862487|311812|193|862487|09012311812001613001019005S7|EL BOLLO PANIFICADORA|DISTRIBUIDORA EL BOLLO CAFETALES SA DE CV|CIUDAD DE MÉXICO|Tlalpan|14390.0|311812|Panificación tradicional|2010-07||19.28964518|-99.12158477|31 a 50 personas|31|50
6493|910102|311812|194|910102|09003311812001111001019005M3|EL BOLLO PANIFICADORA|DISTRIBUIDORA EL BOLLO CAFETALES SA DE CV|CIUDAD DE MÉXICO|Coyoacán|14390.0|311812|Panificación tradicional|2014-12||19.30570802|-99.16936897|31 a 50 personas|31|50
6494|1010044|464111|195|1010044|09012464111003372001000000S0|FARMACIA UNION ARENAL|GRUPO FARMACEUTICO CAMPRISS SA DE CV|CIUDAD DE MÉXICO|Tlalpan|14608.0|464111|Farmacias sin minisúper|2010-07||19.28173584|-99.14319534|11 a 30 personas|11|30
6494|1047432|464111|196|1047432|09015464111003321001000000U0|FARMACIAS MULTIGENERICOS|GRUPO FARMACEUTICO CAMPRISS |CIUDAD DE MÉXICO|Cuauhtémoc|6200.0|464111|Farmacias sin minisúper|2014-12||19.4408799|-99.12502483|11 a 30 personas|11|30
6497|871916|435313|197|871916|09012435313000172001000000U5|INDUSTRIAS BIOSCMIC|INDUSTRIAS BIOSCMIC SA DE CV|CIUDAD DE MÉXICO|Tlalpan|14387.0|435313|Comercio al por mayor de mobiliario, equipo e instrumental médico y de laboratorio|2011-03||19.28834603|-99.12863627|0 a 5 personas|0|5
6498|2069850|321910|198|2069850|15121321210000012001000000U9|TRIPLAY Y CHAPAA CUATITLAN|TRIPLAY Y CHAPAS CUAUTITLAN SA DE CV|MÉXICO|Cuautitlán Izcalli|54730.0|321910|Fabricación de productos de madera para la construcción|2010-07||19.66803926|-99.1949957|6 a 10 personas|6|10
6510|8768117|522452|199|8768117|24028522452001301000000000S6|CASA DE EMPEÑO RESPUESTA RAPIDA|GRUPO COMERCIAL CEA CAPITAL SA DE CV|SAN LUIS POTOSÍ|San Luis Potosí|78110.0|522452|Casas de empeño|2019-11|WWW.RESPUESTARAPIDA.COM|22.18648103|-100.99648309|0 a 5 personas|0|5
6511|6305728|466212|200|6305728|09002466212001043001002718M4|ALIANZA COMERCIAL CELULAR,S.A.DE C.V.|ALIANZA COMERCIAL CELULAR SA DE CV|CIUDAD DE MÉXICO|Azcapotzalco|2070.0|466212|Comercio al por menor de teléfonos y otros aparatos de comunicación|2013-07|WWW.ALICOM.MX|19.46687979|-99.18663185|0 a 5 personas|0|5
6511|6759886|466212|201|6759886|09002466212001581000002718S3|ALIANZA COMERCIAL CELULAR,S.A.DE C.V.|ALIANZA COMERCIAL CELULAR SA DE CV|CIUDAD DE MÉXICO|Azcapotzalco|2070.0|466212|Comercio al por menor de teléfonos y otros aparatos de comunicación|2016-10|WWW.ALICOM.MX|19.47389357|-99.1893472|0 a 5 personas|0|5
6511|2501392|466212|202|2501392|15106466212004561000002718S3|ALIANZA COMERCIAL CELULAR S.A. DE C.V.|ALIANZA COMERCIAL CELULAR SA DE CV|MÉXICO|Toluca|50090.0|466212|Comercio al por menor de teléfonos y otros aparatos de comunicación|2010-07||19.28777988|-99.65278664|0 a 5 personas|0|5
6511|6353540|466212|203|6353540|15106466212002901000002718S3|ALIANZA COMERCIAL CELULAR SA DE CV|ALIANZA COMERCIAL CELULAR SA DE CV|MÉXICO|Toluca|50000.0|466212|Comercio al por menor de teléfonos y otros aparatos de comunicación|2010-07|WWW.ALICOM.MX|19.28723923|-99.65421816|0 a 5 personas|0|5
6511|6791384|466212|204|6791384|15106466212004801000002718S3|ALIANZA COMERCIAL CELULAR SA DE CV|ALIANZA COMERCIAL CELULAR SA DE CV|MÉXICO|Toluca|50150.0|466212|Comercio al por menor de teléfonos y otros aparatos de comunicación|2017-03||19.28425766|-99.65833041|0 a 5 personas|0|5
6511|2040184|466212|205|2040184|15057466212001041000002718S4|ALIANZA COMERCIAL CELULAR SA DE CV|ALIANZA COMERCIAL CELULAR SA DE CV|MÉXICO|Naucalpan de Juárez|53124.0|466212|Comercio al por menor de teléfonos y otros aparatos de comunicación|2014-12||19.51610186|-99.26648477|0 a 5 personas|0|5
6511|6353541|466212|206|6353541|15106466212002912001002718S0|ALIANZA COMERCIAL CELULAR,S.A.DE C.V|ALIANZA COMERCIAL CELULAR SA DE CV|MÉXICO|Toluca|50000.0|466212|Comercio al por menor de teléfonos y otros aparatos de comunicación|2010-07|WWW.ALICOM.MX|19.28724095|-99.65421824|0 a 5 personas|0|5
6511|3593976|466212|207|3593976|22014466212003281000002718S6|ALICOM|ALIANZA COMERCIAL CELULAR SA DE CV|QUERÉTARO|Querétaro|76000.0|466212|Comercio al por menor de teléfonos y otros aparatos de comunicación|2014-12||20.59573333|-100.4047018|0 a 5 personas|0|5
6518|903510|325620|208|903510|09014325620000334001000000U8|LABORATORIOS ANTEII SA DE CV|LABORATORIOS ANTEII SA DE CV|CIUDAD DE MÉXICO|Benito Juárez|3550.0|325620|Fabricación de cosméticos, perfumes y otras preparaciones de tocador|2014-12|WWW.ANTEII.COM|19.37183321|-99.13834983|31 a 50 personas|31|50
6520|953466|463111|209|953466|09014463111000021001000000U3|MARQUISSE TELAS FINAS|MARQUISSE PARROQUIA SA DE CV|CIUDAD DE MÉXICO|Benito Juárez|3100.0|463111|Comercio al por menor de telas|2010-07|WWW.FLICKR.COM/PHOTOS/MARQUISSE/SETS|19.36856954|-99.16655215|0 a 5 personas|0|5
6521|6801834|464111|210|6801834|09015464111004551000000000U1|FARMACIAS SIMILARES|FARMACIAS SILVAFAM SA DE CV|CIUDAD DE MÉXICO|Cuauhtémoc|6600.0|464111|Farmacias sin minisúper|2017-11||19.424142|-99.16315371|0 a 5 personas|0|5
6521|971456|464113|211|971456|09003464111003101010000000S2|FARMACIAS SIMILARES|SILVAFAM SA DE CV|CIUDAD DE MÉXICO|Coyoacán|4200.0|464113|Comercio al por menor de productos naturistas, medicamentos homeopáticos y de complementos alimenticios|2010-07||19.34137827|-99.14025096|0 a 5 personas|0|5
6525|2933743|326198|212|2933743|19039541890001273010000000U9|CEPRONSA|SIGNOS ROTULACION SA DE CV|NUEVO LEÓN|Monterrey|64460.0|326198|Fabricación de otros productos de plástico con reforzamiento|2010-07|WWW.CEPRONSA.COM|25.69650989|-100.34623212|0 a 5 personas|0|5
6525|3873767|323119|213|3873767|26017339950000013001000000U5|DE SIGNOS ROTULACION||SONORA|Caborca|83620.0|323119|Impresión de formas continuas y otros impresos|2010-07||30.70863519|-112.17038048|0 a 5 personas|0|5
6526|6313848|621491|214|6313848|09014621320000074010003843M8|OMNI LASER|HOCCE SA DE CV|CIUDAD DE MÉXICO|Benito Juárez|3020.0|621491|Otros centros del sector privado para la atención de pacientes que no requieren hospitalización|2010-07|WWW.OMNILASER.INFO|19.3857779|-99.15965287|0 a 5 personas|0|5
6526|6321540|621491|215|6321540|15058621113001011010003843S7|OMNILASER|HOCCE SA DE CV|MÉXICO|Nezahualcóyotl|57600.0|621491|Otros centros del sector privado para la atención de pacientes que no requieren hospitalización|2010-07||19.40242|-99.03432|0 a 5 personas|0|5
6526|6383001|621491|216|6383001|22014621491000042000003843S7|OMNILASER|HOCCE SA DE CV|QUERÉTARO|Querétaro|76148.0|621491|Otros centros del sector privado para la atención de pacientes que no requieren hospitalización|2010-07||20.61669724|-100.39114617|0 a 5 personas|0|5
6529|8489177|434221|217|8489177|09014434221000591000000000U8|FARBITEK|FARBITEK SA DE CV|CIUDAD DE MÉXICO|Benito Juárez|3020.0|434221|Comercio al por mayor de materiales metálicos para la construcción y la manufactura|2019-11||19.38871139|-99.14719878|0 a 5 personas|0|5
6529|964736|467113|218|964736|09014467113000873001000000U9|FARBITEK|FARBITEK SA DE CV|CIUDAD DE MÉXICO|Benito Juárez|3020.0|467113|Comercio al por menor de pintura|2010-07|WWW.FARBITEK.COM.MX|19.38871139|-99.14719878|0 a 5 personas|0|5
6532|966142|722512|219|966142|09014722110002253001000000U9|MARINA BISTRO|BISTRO DEL VALLE SA DE CV|CIUDAD DE MÉXICO|Benito Juárez|3600.0|722512|Restaurantes con servicio de preparación de pescados y mariscos|2010-07||19.38086537|-99.15846426|31 a 50 personas|31|50
6538|9296234|434223|220|9296234|09014434223000711000000000U2|INSUFARMA SA DE CV|INSUFARMA SA DE CV|CIUDAD DE MÉXICO|Benito Juárez|3590.0|434223|Comercio al por mayor de envases en general, papel y cartón para la industria|2020-11|WWW.INSUFARMA.COM|19.35943373|-99.14194914|0 a 5 personas|0|5
6540|8596036|488511|221|8596036|09017488511002693000000000U2|PLANET LOGISTIC S.A DE CV|PLANET LOGISTIC SA DE CV|CIUDAD DE MÉXICO|Venustiano Carranza|15530.0|488511|Servicios de agencias aduanales|2019-11||19.43035481|-99.09200432|11 a 30 personas|11|30
6541|8595920|326193|222|8595920|09017326160000033000000000S5|BODEGA DE CITRULSA DE MEXICO|CITRULSA DEMEXICO SA DE CV|CIUDAD DE MÉXICO|Venustiano Carranza|15700.0|326193|Fabricación de envases y contenedores de plástico para embalaje con y sin reforzamiento|2019-11||19.41526302|-99.08744|11 a 30 personas|11|30
6541|6430433|326160|223|6430433|09017326193000023010020960S7|CITRULSA|CITRULSA DE MEXICO SA DE CV|CIUDAD DE MÉXICO|Venustiano Carranza|15700.0|326160|Fabricación de botellas de plástico|2010-07||19.41605919|-99.08832857|101 a 250 personas|101|250
6541|6708021|326160|224|6708021|15051326160000043001020960M5|CITRULSA|CITRULSA DE MEXICO SA DE CV|MÉXICO|Lerma|52004.0|326160|Fabricación de botellas de plástico|2016-01|WWW.CITRULSA.COM|19.29098628|-99.53524993|0 a 5 personas|0|5
6548|1000045|463112|225|1000045|09015463112001222000000000U1|BLANCOS EL TEMPLE|BLANCOS EL TEMPLE SA DE CV|CIUDAD DE MÉXICO|Cuauhtémoc|6060.0|463112|Comercio al por menor de blancos|2010-07||19.42921916|-99.12837466|6 a 10 personas|6|10
6548|1000103|463111|226|1000103|09015463111000581000000000U3|BODEGA BLANCOS EL TEMPLE|BLANCOS EL TEMPLE SA DE CV|CIUDAD DE MÉXICO|Cuauhtémoc|6060.0|463111|Comercio al por menor de telas|2010-07||19.42921916|-99.12837466|0 a 5 personas|0|5
6548|834661|813210|227|834661|09007813210006101000000000U8|TEMPLO ESPIRITUALISTA TRINITARIO MARIANO LA PALOMA BLANCA||CIUDAD DE MÉXICO|Iztapalapa|9780.0|813210|Asociaciones y organizaciones religiosas|2010-07||19.3184956|-99.06461108|0 a 5 personas|0|5
6548|1220994|813210|228|1220994|11001813210000151000000000U8|TEMPLO DE LA CRUZ BLANCA|PARROQUIA DE NUESTRA SEÑORA DE LA LUZ EN ABASOLO GUANAJUATO AR|GUANAJUATO|Abasolo|36970.0|813210|Asociaciones y organizaciones religiosas|2014-12||20.45003355|-101.53470279|0 a 5 personas|0|5
6548|8619409|813210|229|8619409|12001813210012431000000000U9|TEMPLO DE LA SANTA MUERTE NIÑA BLANCA MARA|TEMPLO DE LA SANTA MUERTE NIÑA BLANCA MARA |GUERRERO|Acapulco de Juárez|39463.0|813210|Asociaciones y organizaciones religiosas|2019-11||16.8948286|-99.80485254|0 a 5 personas|0|5
6548|1925230|813210|230|1925230|14120813210000171001000000U1|TEMPLO NUESTRAS SEÑORA DE GUADALUPE AGUA BLANCA|ARQUIDIOSIS DE GUADALAJARA AR|JALISCO|Zapopan|45235.0|813210|Asociaciones y organizaciones religiosas|2010-07||20.6028556|-103.43233182|6 a 10 personas|6|10
6548|8865814|813210|231|8865814|20439813210000801000000000U9|TEMPLO CRISTIANO SIN NOMBRE|INSTITUTO MISIONERO ROCA BLANCA AR|OAXACA|Santa María Tonameca|70946.0|813210|Asociaciones y organizaciones religiosas|2019-11||15.75180602|-96.52390796|0 a 5 personas|0|5
6548|3060257|813210|232|3060257|20302813210000011000000000U5|TEMPLO EVANGELICO PENTECOSTES CORDERO GLORIOSO|MISION VICTORIA ROCA BLANCA AR|OAXACA|San Pedro Atoyac|71710.0|813210|Asociaciones y organizaciones religiosas|2010-07||16.48692461|-97.98600945|0 a 5 personas|0|5
6548|3147379|813210|233|3147379|20213813210000043001000000U7|TEMPLO EVANGELICO SINAI|MISION VICTORIA ROCA BLANCA REG GOB N.SAGAR / 2 4 1 5 / 2 0 0 0 AR|OAXACA|San Juan Quiahije|71870.0|813210|Asociaciones y organizaciones religiosas|2014-12||16.29869218|-97.32143872|0 a 5 personas|0|5
6548|4100959|813210|234|4100959|28041813210001481001000000U5|TEMPLO AMISTAD CRISTIANA DE VICTORIA LUCIO BLANCO|AMISTAD CRISTIANA DE VICTORIA AR|TAMAULIPAS|Victoria|87014.0|813210|Asociaciones y organizaciones religiosas|2010-07||23.75618473|-99.17340553|31 a 50 personas|31|50
6548|4065185|813210|235|4065185|28022813210007721001000000U8|TEMPLO CASA BLANCA LOS HECHOS||TAMAULIPAS|Matamoros|87345.0|813210|Asociaciones y organizaciones religiosas|2014-12||25.85691638|-97.54003085|11 a 30 personas|11|30
6548|4614017|813210|236|4614017|32036722212000261000000000U2|TEMPLO DEL DIVINO NIÑO MAEASTRO|BARRIO CASA BLANCA AR|ZACATECAS|Ojocaliente|98713.0|813210|Asociaciones y organizaciones religiosas|2010-07||22.5790083|-102.24588269|0 a 5 personas|0|5
6549|1003044|432119|237|1003044|09015463113003881000047038S0|MERCERIA REGINA|MERCERIA REGINA S DE RL DE CV|CIUDAD DE MÉXICO|Cuauhtémoc|6090.0|432119|Comercio al por mayor de otros productos textiles|2010-07||19.4270178|-99.13067363|0 a 5 personas|0|5
6549|1002947|465311|238|1002947|09015465311013792000047038S5|MERCERIA REGINA|MERCERIA REGINA S DE RL DE CV|CIUDAD DE MÉXICO|Cuauhtémoc|6090.0|465311|Comercio al por menor de artículos de papelería|2010-07||19.42701542|-99.13065578|0 a 5 personas|0|5
6549|1003043|465311|239|1003043|09015463113004352011047038M1|MERCERIA REGINA|MERCERIA REGINA S DE RL DE CV|CIUDAD DE MÉXICO|Cuauhtémoc|6090.0|465311|Comercio al por menor de artículos de papelería|2010-07||19.42701619|-99.13066153|6 a 10 personas|6|10
6549|9069806|465311|240|9069806|09015465311021123000047038S3|MERCERIA REGINA|MERCERIA REGINA S DE RL DE CV|CIUDAD DE MÉXICO|Cuauhtémoc|6090.0|465311|Comercio al por menor de artículos de papelería|2019-11||19.4270172|-99.13066911|11 a 30 personas|11|30
6549|7151619|463113|241|7151619|14120463113001561000000000U1|MERCERIA REGINA||JALISCO|Zapopan|45236.0|463113|Comercio al por menor de artículos de mercería y bonetería|2019-11||20.62466911|-103.43643226|0 a 5 personas|0|5
6549|8744715|465311|242|8744715|19009465311001191000000000U5|MERCERIA Y PAPELERIA REGINA||NUEVO LEÓN|Cadereyta Jiménez|67484.0|465311|Comercio al por menor de artículos de papelería|2019-11||25.59103202|-99.98373341|0 a 5 personas|0|5
6549|8971291|465311|243|8971291|19006465311009711000000000U8|PAPELERIA Y MERCERIA REGINA||NUEVO LEÓN|Apodaca|66636.0|465311|Comercio al por menor de artículos de papelería|2019-11||25.77912289|-100.25064088|0 a 5 personas|0|5
6549|9208813|463113|244|9208813|21208463113000321000000000U5|ESTAMBRES Y MERCERIA REGINA||PUEBLA|Zacatlán|73310.0|463113|Comercio al por menor de artículos de mercería y bonetería|2019-11||19.9368708|-97.96175485|0 a 5 personas|0|5
6550|1335888|463113|245|1335888|11017432111000051010000000U7|COMPRA VENTA DE BOTONES DE COCER BOTAO MODA||GUANAJUATO|Irapuato|36530.0|463113|Comercio al por menor de artículos de mercería y bonetería|2010-07||20.67120729|-101.35569563|0 a 5 personas|0|5
6550|7148070|432119|246|7148070|15030432119000161000000000U6|BOTONES Y MODAS DUPLAN||MÉXICO|Chiconcuac|56270.0|432119|Comercio al por mayor de otros productos textiles|2019-11||19.55440368|-98.89297399|0 a 5 personas|0|5
6550|2126756|463113|247|2126756|15030463113000541000000000U4|BOTONES Y MODAS Y MODAS||MÉXICO|Chiconcuac|56270.0|463113|Comercio al por menor de artículos de mercería y bonetería|2010-07||19.55440368|-98.89297399|0 a 5 personas|0|5
6553|889776|541510|248|889776|09015541510002492001000000U0|ND NEGOCIOS DIGITALES|ND NEGOCIOS DIGITALES |CIUDAD DE MÉXICO|Cuauhtémoc|9310.0|541510|Servicios de diseño de sistemas de cómputo y servicios relacionados|2013-07|WWW.NEGOCIOS-DIGITALES.COM.MX|19.43589322|-99.15572249|31 a 50 personas|31|50
6555|989598|722511|249|989598|09015722110002983000000000U8|SUSHITTO|SUSHIMAKI |CIUDAD DE MÉXICO|Cuauhtémoc|6000.0|722511|Restaurantes con servicio de preparación de alimentos a la carta o de comida corrida|2010-07||19.43354511|-99.13949646|11 a 30 personas|11|30
6556|8326467|465913|250|8326467|09015465913001632000000000U0|FABRICAS LYON||CIUDAD DE MÉXICO|Cuauhtémoc|6060.0|465913|Comercio al por menor de artículos religiosos|2019-11|LASFABRICASDELYON.COM|19.43365201|-99.13411328|6 a 10 personas|6|10
6556|8503454|316213|251|8503454|11031316213007333000000000U8|FABRICA DE ZAPATO LYON 2||GUANAJUATO|San Francisco del Rincón|36300.0|316213|Fabricación de calzado de plástico|2019-11||21.018155|-101.85124924|11 a 30 personas|11|30
6556|1711589|326150|252|1711589|14101326150000043000000000U0|FABRICA DE POLIUTERANO LION FEX FOAM|LION FEX FOAM SA DE CV|JALISCO|Tonalá|45410.0|326150|Fabricación de espumas y productos de uretano|2014-12||20.67436565|-103.22942078|11 a 30 personas|11|30
6558|1026632|541510|253|1026632|09015541510001363000000000U4|SIMMPAPEL|SIMMPAPEL SA DE CV|CIUDAD DE MÉXICO|Cuauhtémoc|6500.0|541510|Servicios de diseño de sistemas de cómputo y servicios relacionados|2010-07|WWW.SIMMPAPEL.COM|19.42643028|-99.17063832|31 a 50 personas|31|50
6561|8153269|722511|254|8153269|15104722310000105000000000S0|LOS BISQUETS DE OBREGON|CUAJIMALPA PAN Y CAFE SA DE CV|MÉXICO|Tlalnepantla de Baz|54020.0|722511|Restaurantes con servicio de preparación de alimentos a la carta o de comida corrida|2019-11||19.55530331|-99.21325364|51 a 100 personas|51|100
6563|920862|541510|255|920862|09004541510000162000000000U5|RECOVERY SYSTEMS|CHIP UP SYSTEMS SA DE CV|CIUDAD DE MÉXICO|Cuajimalpa de Morelos|5120.0|541510|Servicios de diseño de sistemas de cómputo y servicios relacionados|2014-12|WWW.RECOVERY.COM.MX|19.38677064|-99.25304567|6 a 10 personas|6|10
6566|934145|434225|256|934145|09014434225000902000000000U8|TELUX SA DE CV|TELUX SA DE CV|CIUDAD DE MÉXICO|Benito Juárez|3910.0|434225|Comercio al por mayor de equipo y material eléctrico|2014-12|WWW.TELUX.COM.MX|19.37517397|-99.18928388|6 a 10 personas|6|10
6569|952296|465212|257|952296|09014465212000642001000000U0|HERRAMIENTAS INTELIGENTES|HERRAMIENTAS INTELIGENTES SA DE CV|CIUDAD DE MÉXICO|Benito Juárez|3100.0|465212|Comercio al por menor de juguetes|2010-07|WWW.HERRAMIENTASINTELIGENTES.COM|19.37231751|-99.17585915|0 a 5 personas|0|5
6570|7255737|435313|258|7255737|09014435313002861000050381S7|DOMIK UNIFORMES|DOMIK UNIFORMES SA DE CV|CIUDAD DE MÉXICO|Benito Juárez|3230.0|435313|Comercio al por mayor de mobiliario, equipo e instrumental médico y de laboratorio|2019-11|WWW.DOMIKUNIFORMES.COM|19.37296584|-99.1783442|0 a 5 personas|0|5
6570|933491|463211|259|933491|09014435313000772001050381M8|DOMIK UNIFORMES|DOMIK UNIFORMES SA DE CV|CIUDAD DE MÉXICO|Benito Juárez|3200.0|463211|Comercio al por menor de ropa, excepto de bebé y lencería|2014-12||19.37304457|-99.17518575|6 a 10 personas|6|10
6572|7239017|465311|260|7239017|01001465311016151000000000U9|PAPELERIA MADELEINE||AGUASCALIENTES|Aguascalientes|20299.0|465311|Comercio al por menor de artículos de papelería|2019-11||21.91016968|-102.23861029|0 a 5 personas|0|5
6572|7278666|461110|261|7278666|05025461110013991000000000U6|ABARROTES MADELEINE||COAHUILA DE ZARAGOZA|Piedras Negras|26083.0|461110|Comercio al por menor en tiendas de abarrotes, ultramarinos y misceláneas|2019-11||28.68072035|-100.58820784|0 a 5 personas|0|5
6572|8169234|463211|262|8169234|05009463211000701000000000U2|NOVEDADES MADELEINE||COAHUILA DE ZARAGOZA|Francisco I. Madero|27900.0|463211|Comercio al por menor de ropa, excepto de bebé y lencería|2019-11||25.77574487|-103.27157126|0 a 5 personas|0|5
6572|972930|311812|263|972930|09013311812000571000000000U6|PASTELERIA MADELEINE||CIUDAD DE MÉXICO|Xochimilco|16030.0|311812|Panificación tradicional|2014-12||19.26627305|-99.13138366|0 a 5 personas|0|5
6572|952278|722515|264|952278|09014722515000201001000000U0|PASTELERIA MUGUET|MADELEINE SA DE CV|CIUDAD DE MÉXICO|Benito Juárez|3100.0|722515|Cafeterías, fuentes de sodas, neverías, refresquerías y similares|2010-07|WWW.MUGUET.COM.MX|19.37181541|-99.17753963|6 a 10 personas|6|10
6572|1348719|311812|265|1348719|11007311812000271000000000U1|PASTELERIA MADELEINE||GUANAJUATO|Celaya|38000.0|311812|Panificación tradicional|2010-07||20.52327623|-100.8186656|6 a 10 personas|6|10
6572|1212044|463215|266|1212044|11017463215003321000000000U2|TIENDA DE REGALOS MADELEINE||GUANAJUATO|Irapuato|36500.0|463215|Comercio al por menor de bisutería y accesorios de vestir|2014-12||20.67704391|-101.34358966|0 a 5 personas|0|5
6572|1513768|468420|267|1513768|13028468420000021000000000U7|REFACCIONARIA MADELEINE||HIDALGO|Huejutla de Reyes|43000.0|468420|Comercio al por menor de aceites y grasas lubricantes, aditivos y similares para vehículos de motor|2010-07||21.13781298|-98.41025204|0 a 5 personas|0|5
6572|1862974|611511|268|1862974|14039611411000544001000000U9|INSTITUTO MADELEINE MEYER|INSTITUTO MADELEINE MEYER SC|JALISCO|Guadalajara|44150.0|611511|Escuelas del sector privado dedicadas a la enseñanza de oficios|2010-07||20.66887534|-103.37319515|31 a 50 personas|31|50
6572|7135304|722515|269|7135304|14120722515006982000000000U7|CAFETERIA MADELEINE CAFE Y POSTRE||JALISCO|Zapopan|45050.0|722515|Cafeterías, fuentes de sodas, neverías, refresquerías y similares|2019-11||20.65121835|-103.40561902|6 a 10 personas|6|10
6572|6919454|812210|270|6919454|14097812210001411000000000U1|LAVANDERIA MADELEINE||JALISCO|Tlajomulco de Zúñiga|45650.0|812210|Lavanderías y tintorerías|2019-11||20.53142551|-103.42898878|0 a 5 personas|0|5
6572|7199442|465111|271|7199442|15060465111000921000000000U7|COSMETICOS MADELEINE||MÉXICO|Nicolás Romero|54400.0|465111|Comercio al por menor de artículos de perfumería y cosméticos|2019-11||19.6256532|-99.3136038|0 a 5 personas|0|5
6572|2100475|812110|272|2100475|15058812110002101000000000U0|ESTETICA MADELEINE||MÉXICO|Nezahualcóyotl|57000.0|812110|Salones y clínicas de belleza y peluquerías|2010-07||19.41775383|-99.02342948|0 a 5 personas|0|5
6572|7852230|311812|273|7852230|21114311812015481000000000U1|MADELEINE|C.P.T LA MADELEINE SA DE CV|PUEBLA|Puebla|72190.0|311812|Panificación tradicional|2019-11||19.03854378|-98.23823007|0 a 5 personas|0|5
6572|7585199|532282|274|7585199|21111532282000011000000000U8|DIVERSIONES MADELEINE||PUEBLA|Pantepec|73029.0|532282|Alquiler de mesas, sillas, vajillas y similares|2019-11||20.52828324|-97.85482863|0 a 5 personas|0|5
6572|8597255|465311|275|8597255|22018465311000181000000000U3|PAPELERIA MADELEINE||QUERÉTARO|Tolimán|76640.0|465311|Comercio al por menor de artículos de papelería|2019-11||20.8619712|-99.89672683|0 a 5 personas|0|5
6572|3567341|812110|276|3567341|22014812110022551000000000U6|SALON MADELEINE||QUERÉTARO|Querétaro|76147.0|812110|Salones y clínicas de belleza y peluquerías|2014-12||20.62319645|-100.39440722|0 a 5 personas|0|5
6572|6520600|461160|277|6520600|23005461160000421000000000U4|LA MADELEINE|LA MADELEINE PRODULTS SA DE CV|QUINTANA ROO|Benito Juárez|77560.0|461160|Comercio al por menor de dulces y materias primas para repostería|2016-01|WWW.LAMADELEINEPRODULTS.COM|21.04410446|-86.85138627|0 a 5 personas|0|5
6572|8123700|461110|278|8123700|24016461110005241000000000U2|MISCELANEA MADELEINE||SAN LUIS POTOSÍ|Ebano|79110.0|461110|Comercio al por menor en tiendas de abarrotes, ultramarinos y misceláneas|2019-11||22.22710761|-98.36751009|0 a 5 personas|0|5
6572|3831739|611211|279|3831739|25012611211000061001000000U2|ACADEMIA DE ARTES CULINARIOS MADELEINE|ACADEMIA DE ARTES CULINARIOS MADELEINE SC|SINALOA|Mazatlán|82000.0|611211|Escuelas de educación técnica superior del sector privado|2014-12||23.20233722|-106.42280963|11 a 30 personas|11|30
6572|8838399|114111|280|8838399|26029114111001023000000000U8|S.C.P.P. MADELEINE, S.C.L.|SCPP MADELEINE SCL|SONORA|Guaymas|85460.0|114111|Pesca de camarón|2019-11||27.91856067|-110.90634264|6 a 10 personas|6|10
6572|4034426|468211|281|4034426|28038468211000311000000000U7|REFACCIONARIA Y ACCESORIOS MADELEINE||TAMAULIPAS|Tampico|89060.0|468211|Comercio al por menor de partes y refacciones nuevas para automóviles, camionetas y camiones|2010-07||22.22640271|-97.84822046|0 a 5 personas|0|5
6572|7234904|465311|282|7234904|29005465311002721000000000U4|PAPELERIA MADELEINE||TLAXCALA|Apizaco|90339.0|465311|Comercio al por menor de artículos de papelería|2019-11||19.41673213|-98.14990942|0 a 5 personas|0|5
6572|4413994|722512|283|4413994|30193722219005751000000000U3|COCTELERIA Y ANTOJITOS MADELEINE||VERACRUZ DE IGNACIO DE LA LLAVE|Veracruz|91900.0|722512|Restaurantes con servicio de preparación de pescados y mariscos|2010-07||19.19430075|-96.12721451|0 a 5 personas|0|5
6574|826017|339994|284|826017|09007339994000082001000000U0|FABRICA DE VELADORAS|VELADORA VIRGEN MEXICANA SA DE CV|CIUDAD DE MÉXICO|Iztapalapa|9570.0|339994|Fabricación de velas y veladoras|2010-07||19.35024995|-99.03461453|11 a 30 personas|11|30
6575|3682137|461110|285|3682137|24049461110001781000000000U2|MINI SUPER VIRI||SAN LUIS POTOSÍ|Villa de Ramos|78660.0|461110|Comercio al por menor en tiendas de abarrotes, ultramarinos y misceláneas|2010-07||23.07485107|-102.1552129|0 a 5 personas|0|5
6578|6761916|812310|286|6761916|09002812310000212000000000S9|FUNEZA|ORION FUNERAL SERVICES SA DE CV|CIUDAD DE MÉXICO|Azcapotzalco|2080.0|812310|Servicios funerarios|2016-10||19.46024949|-99.17816998|6 a 10 personas|6|10
6584|8247208|541219|287|8247208|25006541219000151000000000U1|FEDERACION DES OCIEDADES COOPERATIVAS DE PRODUCCION PESQUERA DE BAHIA Y AGUAS MARINAS ALTATA Y ENSENADA DEL PABELLON SC DE RL DE CV.|ALTATA Y ENSENADA DEL PABELLON SC DE RL|SINALOA|Culiacán|80000.0|541219|Otros servicios relacionados con la contabilidad|2019-11||24.80343744|-107.40405354|0 a 5 personas|0|5
6586|823184|337120|288|823184|09007337120002851000000000U0|MESAS DE MASAJE Y ACCESORIOS PAKUA||CIUDAD DE MÉXICO|Iztapalapa|9860.0|337120|Fabricación de muebles, excepto cocinas integrales, muebles modulares de baño y muebles de oficina y estantería|2010-07|WWW.PAKUA.COM.MX|19.32817345|-99.0773828|0 a 5 personas|0|5
6586|955371|435319|289|955371|09014435319001131000000000U3|MESAS DE MASAJES Y ACCESORIOS PAKUA|MESAS DE MASAJES Y ACESORIOS PAKUA SA DE CV|CIUDAD DE MÉXICO|Benito Juárez|3020.0|435319|Comercio al por mayor de maquinaria y equipo para otros servicios y para actividades comerciales|2010-07|WWW.PAKUA.COM.MX|19.39638128|-99.1553307|0 a 5 personas|0|5
6590|966212|467112|290|966212|09014467112000542001000000M2|PISOS LAMINADOS MANUFACTURAS TIMBERFLOORS|MANUFACTURAS TIMBER FLOORS SA DE CV|CIUDAD DE MÉXICO|Benito Juárez|3650.0|467112|Comercio al por menor de pisos y recubrimientos cerámicos|2010-07|WWW.TIMBERFLOORS.COMMX|19.37685608|-99.15845201|0 a 5 personas|0|5
6591|6735726|434227|291|6735726|09006434227000044001000000U1|COMERCIALIZADORA SARCE|COMERCIALIZADORA SARCE SA DE CV|CIUDAD DE MÉXICO|Iztacalco|8500.0|434227|Comercio al por mayor de vidrios y espejos|2016-10||19.39605336|-99.08087048|11 a 30 personas|11|30
6592|28210|466410|292|28210|01001466410005621000000000U3|BAZAR HOGAR DE LA NIÑA CASIMIRA ARTEAGA|ORFANATORIO CASIMIRA ARTEAGA HOGAR DE LA NIÑA ASOCIACION PROTECTORA DE LA INFANCIA DE AGUASCALIENTES AC|AGUASCALIENTES|Aguascalientes|20250.0|466410|Comercio al por menor de artículos usados|2014-12||21.87153997|-102.27029917|0 a 5 personas|0|5
6592|13025|623991|293|13025|01001623991000053001000000U3|ORFANATORIO CASIMIRA ARTEAGA HOGAR DE LA NIÑA ASOCIACION PROTECTORA DE LA INFANCIA DE AGUASCALIENTES AC|ORFANATORIO CASIMIRA ARTEAGA HOGAR DE LA NIÑA ASOCIACION PROTECTORA DE LA INFANCIA DE AGUASCALIENTES AC|AGUASCALIENTES|Aguascalientes|20250.0|623991|Orfanatos y otras residencias de asistencia social del sector privado|2010-07||21.87074303|-102.27018595|31 a 50 personas|31|50
6592|76146|623991|294|76146|02004623991000243000000000U3|ORFANATORIO CASA LA ESPERANZA|CASA LA ESPERANZA AC|BAJA CALIFORNIA|Tijuana|22643.0|623991|Orfanatos y otras residencias de asistencia social del sector privado|2010-07||32.4810556|-117.00571447|11 a 30 personas|11|30
6592|155482|623991|295|155482|02004623991000223000000000U5|ORFANATORIO COLINA DE LUZ||BAJA CALIFORNIA|Tijuana|22645.0|623991|Orfanatos y otras residencias de asistencia social del sector privado|2010-07|WWW.COLINADELUZ.ORG|32.44053653|-117.00084047|11 a 30 personas|11|30
6592|68681|623991|296|68681|02004623991000142001000000U7|ORFANATORIO EMMANUEL||BAJA CALIFORNIA|Tijuana|22180.0|623991|Orfanatos y otras residencias de asistencia social del sector privado|2010-07||32.49540148|-117.03409117|6 a 10 personas|6|10
6592|139015|623991|297|139015|02004623991000011000000000U4|ORFANATORIO LOS ANGELITOS|ORFANOTARIO LOS ANGELITOS AC|BAJA CALIFORNIA|Tijuana|22126.0|623991|Orfanatos y otras residencias de asistencia social del sector privado|2010-07||32.46103036|-116.93106531|0 a 5 personas|0|5
6592|60227|623991|298|60227|02003623991000011001000000U6|ORFANATORIO SALVATIERRA|ASISTENCIA DE LA INFANCIA SALVATIERRA AC|BAJA CALIFORNIA|Tecate|21450.0|623991|Orfanatos y otras residencias de asistencia social del sector privado|2010-07||32.56890476|-116.63582822|11 a 30 personas|11|30
6592|6484058|623991|299|6484058|02001623991000174000000000U6|PUERTA DE FE ORFANATORIO DE MEXICO|PUERTA DE FE ORFANATORIO DE MEXICO AC|BAJA CALIFORNIA|Ensenada|22765.0|623991|Orfanatos y otras residencias de asistencia social del sector privado|2016-01||32.09883944|-116.84171389|31 a 50 personas|31|50
6592|6758853|813230|300|6758853|02004813230001542001000000U0|ORFANATORIO EMANUEL|ORFANATORIO EMMANUEL AC|BAJA CALIFORNIA|Tijuana|22117.0|813230|Asociaciones y organizaciones civiles|2016-10|WWW.ORFANATOEMANUEL.COM|32.48069757|-116.97088629|11 a 30 personas|11|30
6592|7772427|623992|301|7772427|06002623992000021000000000U1|ORFANATOS Y OTRAS RESIDENCIAS DE ASISTENCIA SOCIAL DEL SECTOR PÚBLICO||COLIMA|Colima|28047.0|623992|Orfanatos y otras residencias de asistencia social del sector público|2019-11||19.25036876|-103.68681036|0 a 5 personas|0|5
6592|408267|623991|302|408267|07019623991000051000000000U3|ORFANATOS Y OTRAS RESIDENCIAS DE ASISTENCIA SOCIAL DEL SECTOR PRIVADO||CHIAPAS|Comitán de Domínguez|30039.0|623991|Orfanatos y otras residencias de asistencia social del sector privado|2014-12||16.24531455|-92.1289276|0 a 5 personas|0|5
6592|534214|623991|303|534214|08031623991000011000000000U1|ORFANATO MORADA DE ANGELES DE TOMOCHI|ORFANATO MORADA DE AMNGELES DE TOMOCHI AC|CHIHUAHUA|Guerrero|31691.0|623991|Orfanatos y otras residencias de asistencia social del sector privado|2010-07||28.36068068|-107.83991048|0 a 5 personas|0|5
6592|988889|623991|304|988889|09003623991000031001000000U7|ORFANATO EL RECOBRO AC.||CIUDAD DE MÉXICO|Coyoacán|4120.0|623991|Orfanatos y otras residencias de asistencia social del sector privado|2010-07|WWW.CENTROELRECOBRO.ORG|19.3502649|-99.14943693|6 a 10 personas|6|10
6592|748903|623991|305|748903|09005623991000031000000000U2|ORFANATORIO LA PAZ|ORFANATORIO LA PAZ AC|CIUDAD DE MÉXICO|Gustavo A. Madero|7070.0|623991|Orfanatos y otras residencias de asistencia social del sector privado|2010-07||19.4853465|-99.10943868|0 a 5 personas|0|5
6592|1698865|611171|306|1698865|14120611171000694001000000U0|COLEGIO IGNACIO L VALLARTA|ORFANATORIO DE LA SOLEDAD DE MARIA AC|JALISCO|Zapopan|45010.0|611171|Escuelas del sector privado que combinan diversos niveles de educación|2014-12|WWW.COLEGIOINGNACIOLVALLARTA.WODRPRESS.COM|20.67516276|-103.44816168|11 a 30 personas|11|30
6592|8699546|623991|307|8699546|14101623991000032000000000U0|ORFANATORIO|PROYECTO DE ATENCION INTEGRAL A LA PERSONA INMUNO DEPRIMIDA AC|JALISCO|Tonalá|45402.0|623991|Orfanatos y otras residencias de asistencia social del sector privado|2019-11||20.62365502|-103.26803301|6 a 10 personas|6|10
6592|1855352|623991|308|1855352|14039623991000213001000000U8|ORFANATORIO MAGDALENA SOFIA|ORFANATORIO MAGDALENA SOFIA AC|JALISCO|Guadalajara|44380.0|623991|Orfanatos y otras residencias de asistencia social del sector privado|2010-07||20.67551646|-103.32916397|6 a 10 personas|6|10
6592|1913826|623991|309|1913826|14073623991000013001000000U1|ORFANATORIO SAGRADO CORAZON DE JESUS|DIÓCESIS DE SAN JUAN DE LOS LAGOS ORFANOTO|JALISCO|San Juan de los Lagos|47000.0|623991|Orfanatos y otras residencias de asistencia social del sector privado|2010-07||21.24484381|-102.33780621|11 a 30 personas|11|30
6592|1988166|623991|310|1988166|15013623991000012001000000U8|ORFANATORIO LA ASUNCION|ASOCIACION LA ROSA AC|MÉXICO|Atizapán de Zaragoza|52990.0|623991|Orfanatos y otras residencias de asistencia social del sector privado|2010-07||19.53306415|-99.23582946|11 a 30 personas|11|30
6592|2138105|813210|311|2138105|15091813210000191000000000U1|ORFANATORIO LA PAZ|CONGREGACION DE LA SAGRADA FAMILIA |MÉXICO|Teoloyucan|54783.0|813210|Asociaciones y organizaciones religiosas|2014-12||19.76768839|-99.17531276|0 a 5 personas|0|5
6592|8436464|623991|312|8436464|18017623991000083000000000U7|ORFANATO U OTRA RESIDENCIA DE ASISTENCIA SOCIAL DEL SECTOR PRIVADO SIN NOMBRE|FUNDACION DAR VIDA DAR AMOR AC|NAYARIT|Tepic|63196.0|623991|Orfanatos y otras residencias de asistencia social del sector privado|2019-11||21.47281837|-104.86538361|11 a 30 personas|11|30
6592|2990647|623991|313|2990647|19039623991000301000000000U6|ORFANATOS Y OTRAS RESIDENCIAS DE ASISTENCIA SOCIAL DEL SECTOR PRIVADO SIN NOMBRE||NUEVO LEÓN|Monterrey|64710.0|623991|Orfanatos y otras residencias de asistencia social del sector privado|2014-12||25.66431744|-100.32902066|0 a 5 personas|0|5
6592|3151484|623991|314|3151484|20059623991000031001000000U4|ORFANATO BRAZOS DE SHALOM|IGLESIA BAUTISTA JESÚS REY DE REYES |OAXACA|Miahuatlán de Porfirio Díaz|70805.0|623991|Orfanatos y otras residencias de asistencia social del sector privado|2014-12||16.31024993|-96.58311267|6 a 10 personas|6|10
6592|8644522|623991|315|8644522|24028623991000302000000000U0|ORFANATOS Y OTRAS RESIDENCIAS DE ASISTENCIA SOCIAL DEL SECTOR PRIVADO||SAN LUIS POTOSÍ|San Luis Potosí|78220.0|623991|Orfanatos y otras residencias de asistencia social del sector privado|2019-11||22.14987599|-101.00799639|6 a 10 personas|6|10
6592|3773859|623991|316|3773859|25012623991000052001000000U4|ORFANATORIO DE MAZATLAN IAP|ORFANATORIO DE MAZATLAN IAP|SINALOA|Mazatlán|82000.0|623991|Orfanatos y otras residencias de asistencia social del sector privado|2010-07|WWW.ORFAMAZ.ORG.MX|23.20700116|-106.41311114|6 a 10 personas|6|10
6592|6934669|623991|317|6934669|30123623991000032000000000U4|ORFANATO HOGAR DE ESPERANZA||VERACRUZ DE IGNACIO DE LA LLAVE|Pánuco|93998.0|623991|Orfanatos y otras residencias de asistencia social del sector privado|2019-11||22.06137662|-98.19745668|6 a 10 personas|6|10
6592|4511864|623991|318|4511864|31048623991000021001000000S5|ORFANATOS Y OTRAS RESIDENCIAS PRIVADAS DE ASISTENCIA SOCIAL||YUCATÁN|Maxcanú|97800.0|623991|Orfanatos y otras residencias de asistencia social del sector privado|2010-07||20.58238988|-90.00563446|6 a 10 personas|6|10
6593|6260119|621511|319|6260119|05035621511000761000004555S3|LABORATORIO NIDIAC|NUCLEO DE INVESTIGACION Y DIAGNOSTICO CLINICO SA|COAHUILA DE ZARAGOZA|Torreón|27100.0|621511|Laboratorios médicos y de diagnóstico del sector privado|2010-07|WWW.NIDIAC.COM|25.539374|-103.43946225|0 a 5 personas|0|5
6593|286028|621511|320|286028|05035621511001032000000000U8|NIDIAC CENTRO DE INVESTIGACION Y DIAGNOSTICO CLINICO||COAHUILA DE ZARAGOZA|Torreón|27000.0|621511|Laboratorios médicos y de diagnóstico del sector privado|2014-12||25.53945311|-103.43946937|6 a 10 personas|6|10
6593|7590316|621511|321|7590316|05035621511001171000000000S4|NUCLEO DE INVESTIGACION Y DIAGNOSTICO CLINICO|NUCLEO DE INVESTIGACION Y DIAGNOSTICO CLINICO |COAHUILA DE ZARAGOZA|Torreón|27100.0|621511|Laboratorios médicos y de diagnóstico del sector privado|2019-11||25.56174091|-103.43230937|0 a 5 personas|0|5
6593|8303291|621511|322|8303291|08019621511000963000000000U6|CENTRO DE DIAGNOSTICO INTEGRAL Y DE INVESTIGACION EN SALUD ANIMAL DEL ESTADO DE CHIHUAHUA|CENTRO DE DIAGNOSTICO INTEGRAL Y DE INVESTIGACION EN SALUD ANIMAL DEL ESTADO DE CHIHUAHUA AC|CHIHUAHUA|Chihuahua|31450.0|621511|Laboratorios médicos y de diagnóstico del sector privado|2019-11|WWW.CFPPCHIHUAHUA.COM.MX|28.5758741|-106.11968211|11 a 30 personas|11|30
6593|837636|434222|323|837636|09007434222000172000000000U9|LABORATORIOS DE INVESTIGACION DIAGNOSTICA|INVESTIGACIÓN DIAGNOSTICA SA DE CV|CIUDAD DE MÉXICO|Iztapalapa|9750.0|434222|Comercio al por mayor de productos químicos para la industria farmacéutica y para otro uso industrial|2010-07|WWW.IDLAB.COM.MX|19.33319809|-99.05298216|6 a 10 personas|6|10
6593|952357|621113|324|952357|09014621113000251000000000U1|CENTRO DE INVESTIGACION Y DIAGNOSTICO EN GLAUCOMA||CIUDAD DE MÉXICO|Benito Juárez||621113|Consultorios de medicina especializada del sector privado|2010-07|WWW.CENTRODEGLAUCOMA.COM.MX|19.37065946|-99.17551689|0 a 5 personas|0|5
6593|8007632|621511|325|8007632|09015621511002301000000000U4|LABORATIRIO DE DIAGNOSTICO INVESTIGACION CIENTIFICA|LABORATORIO DE DIAGNOSTICO INVESTIGACION CIENTIFICA |CIUDAD DE MÉXICO|Cuauhtémoc|6400.0|621511|Laboratorios médicos y de diagnóstico del sector privado|2019-11||19.44151823|-99.1584056|0 a 5 personas|0|5
6593|9206383|621511|326|9206383|09002621511000493000000000U9|LABORATORIO MEXICANO DE INVESTIGACION Y DIAGNOSTICO|LABORATORIO MEXICANO DE INVESTIGACION Y DIAGNOSTICO SA DE CV|CIUDAD DE MÉXICO|Azcapotzalco|2099.0|621511|Laboratorios médicos y de diagnóstico del sector privado|2019-11||19.464949|-99.1891167|11 a 30 personas|11|30
6593|1085126|621511|327|1085126|10005621511000491000004555S3|LABORATORIO NIDIAC|NUCLEO DE INVESTIGACION Y DIAGNOSTICO CLINICO SA|DURANGO|Durango|34000.0|621511|Laboratorios médicos y de diagnóstico del sector privado|2014-12|WWW.NIDIAC.COM|24.02782206|-104.66153895|0 a 5 personas|0|5
6593|6255938|621511|328|6255938|05035621511000491000004555M7|LABORATORIOS NIDIAC|NUCLEO DE INVESTIGACION Y DIAGNOSTICO CLINICO SA|DURANGO|Durango|34208.0|621511|Laboratorios médicos y de diagnóstico del sector privado|2010-07|WWW.NIDIAC.COM|24.06441444|-104.60343517|11 a 30 personas|11|30
6593|6864120|621511|329|6864120|10032621511000041000004555S0|LABORATORIOS NIDIAC|NUCLEO DE INVESTIGACION Y DIAGNOSTICO CLINICO SA|DURANGO|Santiago Papasquiaro|34630.0|621511|Laboratorios médicos y de diagnóstico del sector privado|2019-04|WWW.NIDIAC.COM|25.04387383|-105.42200343|0 a 5 personas|0|5
6593|6864247|621511|330|6864247|10005621511000611000004555S6|LABORATORIOS NIDIAC|NUCLEO DE INVESTIGACION Y DIAGNOSTICO CLINICO SA|DURANGO|Durango|34058.0|621511|Laboratorios médicos y de diagnóstico del sector privado|2019-04|WWW.NIDIAC.COM|24.01010587|-104.69303737|0 a 5 personas|0|5
6593|7898096|621511|331|7898096|14067621511000651000000000U8|INSTITUTO DE DIAGNOSTICO E INVETIGACION MEDICA|INSTITUTO DE DIAGNOSTICO E INVESTIGACION MEDICA SA DE CV|JALISCO|Puerto Vallarta|48328.0|621511|Laboratorios médicos y de diagnóstico del sector privado|2019-11||20.64120354|-105.22106379|0 a 5 personas|0|5
6593|6758129|621511|332|6758129|32056621511000271000004555S6|NÚCLEO DE INVESTIGACIÓN Y DIAGNÓSTICO CLÍNICO|NUCLEO DE INVESTIGACION Y DIAGNOSTICO CLINICO SA|ZACATECAS|Zacatecas|98040.0|621511|Laboratorios médicos y de diagnóstico del sector privado|2016-10|WWW.NIDIAC.COM|22.77290053|-102.57958053|0 a 5 personas|0|5
6601|785076|467111|333|785076|09006467111002263001000000U1|FERRETERIA LA VIGA|FERRETERIA LA VIGA SA DE CV|CIUDAD DE MÉXICO|Iztacalco|9820.0|467111|Comercio al por menor en ferreterías y tlapalerías|2010-07||19.39927121|-99.1234567|0 a 5 personas|0|5
6601|8696688|467111|334|8696688|15104467111006492000000000U7|FERRETERIA PUENTE DE VIGAS||MÉXICO|Tlalnepantla de Baz|54080.0|467111|Comercio al por menor en ferreterías y tlapalerías|2019-11||19.51450006|-99.21288326|6 a 10 personas|6|10
6603|6307959|435313|335|6307959|09016435313000533001024732S9|UNIPARTS|UNIPARTS SA DE CV|CIUDAD DE MÉXICO|Miguel Hidalgo|11550.0|435313|Comercio al por mayor de mobiliario, equipo e instrumental médico y de laboratorio|2010-07|WWW.UNIPARTS.COM.MX|19.43249532|-99.19266079|51 a 100 personas|51|100
6603|6870955|435313|336|6870955|09016435313001184001024732M0|UNIPARTS|UNIPARTS SA DE CV|CIUDAD DE MÉXICO|Miguel Hidalgo|11320.0|435313|Comercio al por mayor de mobiliario, equipo e instrumental médico y de laboratorio|2019-04|WWW.UNIPARTS.COM.MX|19.44443152|-99.17028052|6 a 10 personas|6|10
6603|1668531|435313|337|1668531|14039433110001361010024732S1|UNIPARTS|UNIPARTS SA DE CV|JALISCO|Guadalajara|44160.0|435313|Comercio al por mayor de mobiliario, equipo e instrumental médico y de laboratorio|2014-12|WWW.UNIPARTS.COM.MX|20.66912048|-103.35973152|0 a 5 personas|0|5
6603|6870954|435313|338|6870954|19019435313000152001024732S0|UNIPARTS|UNIPARTS SA DE CV|NUEVO LEÓN|San Pedro Garza García|66230.0|435313|Comercio al por mayor de mobiliario, equipo e instrumental médico y de laboratorio|2019-04|WWW.UNIPARTS.COM.MXQ|25.66150263|-100.40305388|0 a 5 personas|0|5
6603|4538492|435313|339|4538492|31050434222000521010024732S9|UNIPARTS|UNIPARTS SA DE CV|YUCATÁN|Mérida|97137.0|435313|Comercio al por mayor de mobiliario, equipo e instrumental médico y de laboratorio|2014-12|WWW.PARTS.COM.MXW.UN|20.99994757|-89.61020718|0 a 5 personas|0|5
6603|8418992|435313|340|8418992|31050435313001311000000000S0|UNIPARTS SA DE CV|UNIPARTS SA DE CV|YUCATÁN|Mérida|97137.0|435313|Comercio al por mayor de mobiliario, equipo e instrumental médico y de laboratorio|2019-11||20.99891994|-89.60394109|0 a 5 personas|0|5
6604|9279863|466111|341|9279863|09016466111003071000000000U7|MUEBLERIA|COMERCIALIZADORA CAMBIO DE MANO SA DE CV|CIUDAD DE MÉXICO|Miguel Hidalgo|11580.0|466111|Comercio al por menor de muebles para el hogar|2020-11||19.4287585|-99.18937187|0 a 5 personas|0|5
6604|690274|466111|342|690274|09016466111002022001000000U1|PIRWI|COMERCIALIZADORA CAMBIO DE MANO SA DE CV|CIUDAD DE MÉXICO|Miguel Hidalgo|11600.0|466111|Comercio al por menor de muebles para el hogar|2014-12||19.43201832|-99.19576884|11 a 30 personas|11|30
6605|1148093|813210|343|1148093|11020813210002531000000000U9|PARROQUIA DE NUESTRA SEÑORA DEL MONTE CARMELO|PARROQUIA NUESTRA SEÑORA DEL CARMEN |GUANAJUATO|León|37299.0|813210|Asociaciones y organizaciones religiosas|2010-07||21.11652986|-101.60945583|0 a 5 personas|0|5
6610|9315827|236112|344|9315827|13077236112000021000000000U9|GRUPO MERA GROUP CONSTRUCTORA E INMOBILIARIA||HIDALGO|Tulancingo de Bravo|43600.0|236112|Edificación de vivienda multifamiliar|2020-11||20.08419497|-98.36645918|0 a 5 personas|0|5
6614|6406692|313220|345|6406692|09016313220000034002012202M2|CORCIMEX|TEXTILES SANTA SUSANA SA DE CV|CIUDAD DE MÉXICO|Miguel Hidalgo|11590.0|313220|Fabricación de telas angostas de tejido de trama y pasamanería|2014-12|WWW.CORCIMEX.COM.MX|19.43199582|-99.17780774|11 a 30 personas|11|30
6614|6405912|313220|346|6405912|29014313220000016002012202S0|CORCIMEX|TEXTILES SANTA SUSANA SA DE CV|TLAXCALA|Hueyotlipan|90240.0|313220|Fabricación de telas angostas de tejido de trama y pasamanería|2010-07||19.56675046|-98.38318063|101 a 250 personas|101|250
6617|6882183|461140|347|6882183|09010461140001101000000000U1|NUTRI PLUS|NUTRI PLUS SA DE CV|CIUDAD DE MÉXICO|Álvaro Obregón|1020.0|461140|Comercio al por menor de semillas y granos alimenticios, especias y chiles secos|2019-04||19.36151396|-99.18310951|11 a 30 personas|11|30
6617|7716314|722518|348|7716314|15121722518004271000000000U8|NUTRI TACOS PLUS||MÉXICO|Cuautitlán Izcalli|54730.0|722518|Restaurantes que preparan otro tipo de alimentos para llevar|2019-11||19.66467713|-99.2044938|0 a 5 personas|0|5
6617|4391158|434112|349|4391158|30003464113000291000000000U3|NUTRI PLUS||VERACRUZ DE IGNACIO DE LA LLAVE|Acayucan|96026.0|434112|Comercio al por mayor de medicamentos veterinarios y alimentos para animales, excepto mascotas|2010-07||17.95414867|-94.91815147|0 a 5 personas|0|5
6618|1925289|334610|350|1925289|14120334610000035001000000U9|AD OPTICAL DISC DE MEXICO|AD OPTICAL DISC DE MEXICO SA DE CV|JALISCO|Zapopan|45134.0|334610|Fabricación y reproducción de medios magnéticos y ópticos|2014-12|WWW.AOD-MEXICO.COM|20.75583825|-103.42726713|11 a 30 personas|11|30
6619|743896|435411|351|743896|09017466211000092000000000U2|DISEÑO FORMAS COMPUTACION|DISEÑO FORMAS COMPUTACION SA DE CV|CIUDAD DE MÉXICO|Venustiano Carranza|15900.0|435411|Comercio al por mayor de mobiliario, equipo, y accesorios de cómputo|2010-07|WWW.DIFOCOMSA.COM|19.42347345|-99.11011503|6 a 10 personas|6|10
6620|686732|467111|352|686732|09016467111002793001000000U6|GRUPO LAMIVE|GRUPO LAMIVE SA DE CV|CIUDAD DE MÉXICO|Miguel Hidalgo|11320.0|467111|Comercio al por menor en ferreterías y tlapalerías|2014-12||19.44415881|-99.17874909|6 a 10 personas|6|10
6621|49636|461110|353|49636|01005461110006841000000000U8|ABARROTES VINOS Y LICORES EL SECO||AGUASCALIENTES|Jesús María|20909.0|461110|Comercio al por menor en tiendas de abarrotes, ultramarinos y misceláneas|2014-12||21.98268603|-102.2720138|0 a 5 personas|0|5
6621|7012361|461110|354|7012361|07019461110029951000000000U3|ABARROTES PILITA SECA||CHIAPAS|Comitán de Domínguez|30030.0|461110|Comercio al por menor en tiendas de abarrotes, ultramarinos y misceláneas|2019-11||16.25662279|-92.12594408|0 a 5 personas|0|5
6621|7921084|461110|355|7921084|07089461110047641000000000U1|ABARROTES PUENTE SECO||CHIAPAS|Tapachula|30700.0|461110|Comercio al por menor en tiendas de abarrotes, ultramarinos y misceláneas|2019-11||14.91611135|-92.26324578|0 a 5 personas|0|5
6621|349286|461110|356|349286|07048461110000581000000000U0|ABARROTES PUENTE SECO||CHIAPAS|Juárez|29510.0|461110|Comercio al por menor en tiendas de abarrotes, ultramarinos y misceláneas|2010-07||17.6081888|-93.17427119|0 a 5 personas|0|5
6621|365808|461110|357|365808|07019461110021711000000000U9|TIENDA DE ABARROTES CON VENTA DE CERVEZA VINOS Y LICORES MODELORAMA PILITA SECA||CHIAPAS|Comitán de Domínguez|30030.0|461110|Comercio al por menor en tiendas de abarrotes, ultramarinos y misceláneas|2014-12||16.25612693|-92.12584756|0 a 5 personas|0|5
6621|7268054|461110|358|7268054|09017461110036371000000000U7|ABARROTES CHILE SECO MOLE EN PASTA Y MATERIAS PRIMAS||CIUDAD DE MÉXICO|Venustiano Carranza|15500.0|461110|Comercio al por menor en tiendas de abarrotes, ultramarinos y misceláneas|2019-11||19.42841471|-99.10657427|0 a 5 personas|0|5
6621|8848573|461110|359|8848573|09009461110013771000000000U2|ABARROTES Y CHILES SECO ELO||CIUDAD DE MÉXICO|Milpa Alta|12900.0|461110|Comercio al por menor en tiendas de abarrotes, ultramarinos y misceláneas|2019-11||19.17645196|-98.99641937|0 a 5 personas|0|5
6621|7216541|461140|360|7216541|09017461140007151000000000U5|LOCAL DE CHILE SECO SEMILLA Y ABARROTE SIN NOMBRE||CIUDAD DE MÉXICO|Venustiano Carranza|15810.0|461140|Comercio al por menor de semillas y granos alimenticios, especias y chiles secos|2019-11||19.42800364|-99.12334063|0 a 5 personas|0|5
6621|1124735|461110|361|1124735|11023461110006582001053453S9|ABARROTES SUPER ABARROTES SECAR|ABARROTES SECAR SA DE CV|GUANAJUATO|Pénjamo|36910.0|461110|Comercio al por menor en tiendas de abarrotes, ultramarinos y misceláneas|2010-07||20.34579812|-102.01870777|6 a 10 personas|6|10
6621|1124770|461110|362|1124770|11023461110006602001053453M5|TIENDA DE ABARROTES SECAR|ABARROTES SECAR SA DE CV|GUANAJUATO|Pénjamo|36910.0|461110|Comercio al por menor en tiendas de abarrotes, ultramarinos y misceláneas|2010-07||20.3446775|-102.01921822|6 a 10 personas|6|10
6621|8364336|461140|363|8364336|12028461140000871000000000U7|VENTA DE CHILE SECO Y ABARROTES LEO||GUERRERO|Chilapa de Álvarez|41100.0|461140|Comercio al por menor de semillas y granos alimenticios, especias y chiles secos|2019-11||17.59941518|-99.17345086|0 a 5 personas|0|5
6621|7974978|461140|364|7974978|12028461140001011000000000S9|VENTA DE CHILE SECO Y ABARROTES SIN NOMBRE||GUERRERO|Chilapa de Álvarez|41100.0|461140|Comercio al por menor de semillas y granos alimenticios, especias y chiles secos|2019-11||17.59941518|-99.17345086|0 a 5 personas|0|5
6621|7281113|461110|365|7281113|13077461110020111000000000U3|TIENDA DE ABARROTES Y SEMILLAS SECAS SIN NOMBRE||HIDALGO|Tulancingo de Bravo|43710.0|461110|Comercio al por menor en tiendas de abarrotes, ultramarinos y misceláneas|2019-11||20.15967572|-98.27260445|0 a 5 personas|0|5
6621|2027421|461110|366|2027421|15036461110000941000000000U1|ABARROTES EL CHILE SECO||MÉXICO|Hueypoxtla|55670.0|461110|Comercio al por menor en tiendas de abarrotes, ultramarinos y misceláneas|2010-07||19.97536431|-99.05002107|0 a 5 personas|0|5
6621|7250336|461140|367|7250336|15076461140000121000000000U3|SEMILLAS CHILES SECO Y ABARROTES EL PROVEERA||MÉXICO|San Mateo Atenco|52105.0|461140|Comercio al por menor de semillas y granos alimenticios, especias y chiles secos|2019-11||19.26778559|-99.55166903|0 a 5 personas|0|5
6621|7691743|461140|368|7691743|15039461140002141000000000U7|TIENDA DE ABARROTES Y CHILES SECO SIN NOMBRE||MÉXICO|Ixtapaluca|56580.0|461140|Comercio al por menor de semillas y granos alimenticios, especias y chiles secos|2019-11||19.34557904|-98.85265946|0 a 5 personas|0|5
6621|2389738|461140|369|2389738|15106461140000481000000000U6|VENTA DE SEMILLAS SECAS Y ABARROTES||MÉXICO|Toluca|50010.0|461140|Comercio al por menor de semillas y granos alimenticios, especias y chiles secos|2010-07||19.31164078|-99.62179837|0 a 5 personas|0|5
6621|8475623|461140|370|8475623|16053461140002031000000000U0|SEMILLAS CHILES SECO Y ABARROTES SIN NOMBRE||MICHOACÁN DE OCAMPO|Morelia|58337.0|461140|Comercio al por menor de semillas y granos alimenticios, especias y chiles secos|2019-11||19.69816438|-101.25308088|0 a 5 personas|0|5
6621|3048220|461110|371|3048220|19006461212000851010000000U5|ABARROTES EL SECO||NUEVO LEÓN|Apodaca|66613.0|461110|Comercio al por menor en tiendas de abarrotes, ultramarinos y misceláneas|2010-07||25.81429016|-100.2596672|0 a 5 personas|0|5
6621|8222585|461110|372|8222585|21104461110003441000000000U7|ABARROTES CHILE SECO Y NOVEDADES ANDREA||PUEBLA|Nopalucan|75120.0|461110|Comercio al por menor en tiendas de abarrotes, ultramarinos y misceláneas|2019-11||19.2175102|-97.82445604|0 a 5 personas|0|5
6621|3301123|461110|373|3301123|21128461110000811000000000U3|ABARROTES EL SECO||PUEBLA|San José Chiapa|75010.0|461110|Comercio al por menor en tiendas de abarrotes, ultramarinos y misceláneas|2014-12||19.24107652|-97.76247988|0 a 5 personas|0|5
6621|8656931|461140|374|8656931|21041461110011041000000000U9|ABARROTES Y CHILES SECO LAZCANO||PUEBLA|Cuautlancingo|72710.0|461140|Comercio al por menor de semillas y granos alimenticios, especias y chiles secos|2019-11||19.15533237|-98.25808613|0 a 5 personas|0|5
6621|3533109|461110|375|3533109|21154461110009631000000000U2|TIENDA DE ABARROTES Y SEMILLAS SECAS SIN NOMBRE||PUEBLA|Tecamachalco|75485.0|461110|Comercio al por menor en tiendas de abarrotes, ultramarinos y misceláneas|2010-07||18.84443845|-97.70675668|0 a 5 personas|0|5
