Index|codigo_1|codigo_2|idx_codigo|id_establecimiento|clee|nom_estab|raz_social|entidad|municipio|cod_postal|codigo_act|nombre_act|fecha_alta|www|latitud|longitud|per_ocu|min_ocupacion|max_ocupacion|Nombre1|Nombre2|Nombre3|Direccion1|Direccion2|Direccion3|Colonia|MunicipioDel|CP|EntreCalle1|EntreCalle2|Estado|NombComp|nombre_completo|nombre_completo_limpio
6342.0|6308272.0|531114.0|0.0|6308272.0|09016561620000132012000000U4|FULL SERVICE DE MÉXICO SA DE CV|FULL SERVICE DE MEXICO SA DE CV|CIUDAD DE MÉXICO|Miguel Hidalgo|11560.0|531114.0|Alquiler sin intermediación de oficinas y locales comerciales|2010-07||19.43543705|-99.19015258|251 y más personas|251|inf|FULL SERVICE DE MEXI|CO SA DE CV||LEIBNITZ|117 PISO|3 INT350|ANZURES|MIGUEL HIDALGO|11590|SHAKESPEARE|DARWIN|CDMX|FULL SERVICE DE MEXICO  SA DE CV|FULL SERVICE DE MEXICO SA DE CV|FULL SERVICE DE MEXICO 
6343.0|6988328.0|713943.0|1.0|6988328.0|01001713943002732000000000U2|ENERGYM||AGUASCALIENTES|Aguascalientes|20328.0|713943.0|Centros de acondicionamiento físico del sector privado|2019-11||21.9169813|-102.33329726|6 a 10 personas|6|10|ENERGYM,SA DE CV|||HOMERO|440||PALMAS POLANCO|MIGUEL HIDALGO|11560|EMERSON|HOMERO|CDMX|ENERGYM, SA DE CV|ENERGYM,SA DE CV|ENERGYM
6343.0|6950914.0|713943.0|2.0|6950914.0|03003713943001311000000000U0|ENERGYM FITNESS CENTER||BAJA CALIFORNIA SUR|La Paz|23330.0|713943.0|Centros de acondicionamiento físico del sector privado|2019-11||23.68085279|-109.70901721|0 a 5 personas|0|5|ENERGYM,SA DE CV|||HOMERO|440||PALMAS POLANCO|MIGUEL HIDALGO|11560|EMERSON|HOMERO|CDMX|ENERGYM, SA DE CV|ENERGYM,SA DE CV|ENERGYM
6343.0|176429.0|713943.0|3.0|176429.0|03003713943001081000000000U9|GIMNASIO ENERGYM||BAJA CALIFORNIA SUR|La Paz|23083.0|713943.0|Centros de acondicionamiento físico del sector privado|2014-12||24.09318499|-110.31342762|0 a 5 personas|0|5|ENERGYM,SA DE CV|||HOMERO|440||PALMAS POLANCO|MIGUEL HIDALGO|11560|EMERSON|HOMERO|CDMX|ENERGYM, SA DE CV|ENERGYM,SA DE CV|ENERGYM
6343.0|7682419.0|713943.0|4.0|7682419.0|05030713943002623000000000U8|ENERGYM||COAHUILA DE ZARAGOZA|Saltillo|25000.0|713943.0|Centros de acondicionamiento físico del sector privado|2019-11||25.41860569|-100.99788064|11 a 30 personas|11|30|ENERGYM,SA DE CV|||HOMERO|440||PALMAS POLANCO|MIGUEL HIDALGO|11560|EMERSON|HOMERO|CDMX|ENERGYM, SA DE CV|ENERGYM,SA DE CV|ENERGYM
6343.0|313252.0|713943.0|5.0|313252.0|05018713943000181001000000U4|ENERGYM||COAHUILA DE ZARAGOZA|Monclova|25700.0|713943.0|Centros de acondicionamiento físico del sector privado|2010-07||26.90312222|-101.42315803|6 a 10 personas|6|10|ENERGYM,SA DE CV|||HOMERO|440||PALMAS POLANCO|MIGUEL HIDALGO|11560|EMERSON|HOMERO|CDMX|ENERGYM, SA DE CV|ENERGYM,SA DE CV|ENERGYM
6343.0|8434818.0|713943.0|6.0|8434818.0|05027713943000221000000000U9|ENERGYM||COAHUILA DE ZARAGOZA|Ramos Arizpe|25904.0|713943.0|Centros de acondicionamiento físico del sector privado|2019-11||25.53851998|-100.94153734|0 a 5 personas|0|5|ENERGYM,SA DE CV|||HOMERO|440||PALMAS POLANCO|MIGUEL HIDALGO|11560|EMERSON|HOMERO|CDMX|ENERGYM, SA DE CV|ENERGYM,SA DE CV|ENERGYM
6343.0|282794.0|713943.0|7.0|282794.0|05035713943000841000000000U7|GYM ENERGYM||COAHUILA DE ZARAGOZA|Torreón|27250.0|713943.0|Centros de acondicionamiento físico del sector privado|2014-12||25.51154992|-103.40537505|0 a 5 personas|0|5|ENERGYM,SA DE CV|||HOMERO|440||PALMAS POLANCO|MIGUEL HIDALGO|11560|EMERSON|HOMERO|CDMX|ENERGYM, SA DE CV|ENERGYM,SA DE CV|ENERGYM
6343.0|366852.0|713943.0|8.0|366852.0|07101713943000101001000000U4|ENERGYM||CHIAPAS|Tuxtla Gutiérrez|29066.0|713943.0|Centros de acondicionamiento físico del sector privado|2010-07|WWW.ENERGYM.COM|16.75093699|-93.11543354|0 a 5 personas|0|5|ENERGYM,SA DE CV|||HOMERO|440||PALMAS POLANCO|MIGUEL HIDALGO|11560|EMERSON|HOMERO|CDMX|ENERGYM, SA DE CV|ENERGYM,SA DE CV|ENERGYM
6343.0|470063.0|713943.0|9.0|470063.0|07101713943000482001000000U8|ENERGYM||CHIAPAS|Tuxtla Gutiérrez|29066.0|713943.0|Centros de acondicionamiento físico del sector privado|2010-07|WWW.ENERGIM.COM.MX|16.7512256|-93.11159001|0 a 5 personas|0|5|ENERGYM,SA DE CV|||HOMERO|440||PALMAS POLANCO|MIGUEL HIDALGO|11560|EMERSON|HOMERO|CDMX|ENERGYM, SA DE CV|ENERGYM,SA DE CV|ENERGYM
6343.0|474548.0|713943.0|10.0|474548.0|07101713943000011000000000U5|ENERGYM||CHIAPAS|Tuxtla Gutiérrez|29000.0|713943.0|Centros de acondicionamiento físico del sector privado|2010-07|WWW.ENERGYM.COM.MX|16.75041199|-93.10204397|6 a 10 personas|6|10|ENERGYM,SA DE CV|||HOMERO|440||PALMAS POLANCO|MIGUEL HIDALGO|11560|EMERSON|HOMERO|CDMX|ENERGYM, SA DE CV|ENERGYM,SA DE CV|ENERGYM
6343.0|7457776.0|713943.0|11.0|7457776.0|07017713943000151000000000U7|GIMNASIO MONSTER ENERGYM||CHIAPAS|Cintalapa|30400.0|713943.0|Centros de acondicionamiento físico del sector privado|2019-11||16.69698079|-93.71909873|0 a 5 personas|0|5|ENERGYM,SA DE CV|||HOMERO|440||PALMAS POLANCO|MIGUEL HIDALGO|11560|EMERSON|HOMERO|CDMX|ENERGYM, SA DE CV|ENERGYM,SA DE CV|ENERGYM
6343.0|7187444.0|713943.0|12.0|7187444.0|08010713943000041000000000U4|ENERGYM||CHIHUAHUA|Buenaventura|31880.0|713943.0|Centros de acondicionamiento físico del sector privado|2019-11||30.14970082|-106.88259361|0 a 5 personas|0|5|ENERGYM,SA DE CV|||HOMERO|440||PALMAS POLANCO|MIGUEL HIDALGO|11560|EMERSON|HOMERO|CDMX|ENERGYM, SA DE CV|ENERGYM,SA DE CV|ENERGYM
6343.0|928293.0|713943.0|13.0|928293.0|09010713943001151000000000U9|ENERGYM||CIUDAD DE MÉXICO|Álvaro Obregón|1840.0|713943.0|Centros de acondicionamiento físico del sector privado|2014-12||19.32871959|-99.25538296|0 a 5 personas|0|5|ENERGYM,SA DE CV|||HOMERO|440||PALMAS POLANCO|MIGUEL HIDALGO|11560|EMERSON|HOMERO|CDMX|ENERGYM, SA DE CV|ENERGYM,SA DE CV|ENERGYM
6343.0|959635.0|713943.0|14.0|959635.0|09014713943000081001000000U1|ENERGYM||CIUDAD DE MÉXICO|Benito Juárez|3020.0|713943.0|Centros de acondicionamiento físico del sector privado|2010-07||19.3958416|-99.15762635|6 a 10 personas|6|10|ENERGYM,SA DE CV|||HOMERO|440||PALMAS POLANCO|MIGUEL HIDALGO|11560|EMERSON|HOMERO|CDMX|ENERGYM, SA DE CV|ENERGYM,SA DE CV|ENERGYM
6343.0|940985.0|713943.0|15.0|940985.0|09013713943000581000000000U2|GIMNASIO DE PESAS ENERGYM||CIUDAD DE MÉXICO|Xochimilco|16070.0|713943.0|Centros de acondicionamiento físico del sector privado|2014-12||19.26084083|-99.10590664|0 a 5 personas|0|5|ENERGYM,SA DE CV|||HOMERO|440||PALMAS POLANCO|MIGUEL HIDALGO|11560|EMERSON|HOMERO|CDMX|ENERGYM, SA DE CV|ENERGYM,SA DE CV|ENERGYM
6343.0|9255455.0|713943.0|16.0|9255455.0|09007713943006361000000000U5|GIMNASIO ENERGYM||CIUDAD DE MÉXICO|Iztapalapa|9730.0|713943.0|Centros de acondicionamiento físico del sector privado|2020-11||19.3371251|-99.02876471|0 a 5 personas|0|5|ENERGYM,SA DE CV|||HOMERO|440||PALMAS POLANCO|MIGUEL HIDALGO|11560|EMERSON|HOMERO|CDMX|ENERGYM, SA DE CV|ENERGYM,SA DE CV|ENERGYM
6343.0|1048928.0|713943.0|17.0|1048928.0|09011713943000462001000000U9|GIMNASIO ENERGYM TLAHUAC||CIUDAD DE MÉXICO|Tláhuac|13360.0|713943.0|Centros de acondicionamiento físico del sector privado|2010-07||19.29119693|-99.03920374|6 a 10 personas|6|10|ENERGYM,SA DE CV|||HOMERO|440||PALMAS POLANCO|MIGUEL HIDALGO|11560|EMERSON|HOMERO|CDMX|ENERGYM, SA DE CV|ENERGYM,SA DE CV|ENERGYM
6343.0|8210273.0|713943.0|18.0|8210273.0|09005713943003371000000000U1|GYM ENERGYM||CIUDAD DE MÉXICO|Gustavo A. Madero|7310.0|713943.0|Centros de acondicionamiento físico del sector privado|2019-11||19.51832356|-99.13835665|0 a 5 personas|0|5|ENERGYM,SA DE CV|||HOMERO|440||PALMAS POLANCO|MIGUEL HIDALGO|11560|EMERSON|HOMERO|CDMX|ENERGYM, SA DE CV|ENERGYM,SA DE CV|ENERGYM
6343.0|7809291.0|713943.0|19.0|7809291.0|10005713943001781000000000U0|GIMNASIO ENERGYM||DURANGO|Durango|34236.0|713943.0|Centros de acondicionamiento físico del sector privado|2019-11||24.03860547|-104.5994765|0 a 5 personas|0|5|ENERGYM,SA DE CV|||HOMERO|440||PALMAS POLANCO|MIGUEL HIDALGO|11560|EMERSON|HOMERO|CDMX|ENERGYM, SA DE CV|ENERGYM,SA DE CV|ENERGYM
6343.0|1202756.0|713943.0|20.0|1202756.0|11003466410001251011000000U7|ENERGYM||GUANAJUATO|San Miguel de Allende|37747.0|713943.0|Centros de acondicionamiento físico del sector privado|2014-12||20.90541859|-100.72573007|6 a 10 personas|6|10|ENERGYM,SA DE CV|||HOMERO|440||PALMAS POLANCO|MIGUEL HIDALGO|11560|EMERSON|HOMERO|CDMX|ENERGYM, SA DE CV|ENERGYM,SA DE CV|ENERGYM
6343.0|8066124.0|713943.0|21.0|8066124.0|11028713943000281000000000U3|ENERGYM||GUANAJUATO|Salvatierra|38900.0|713943.0|Centros de acondicionamiento físico del sector privado|2019-11||20.21671368|-100.86924188|0 a 5 personas|0|5|ENERGYM,SA DE CV|||HOMERO|440||PALMAS POLANCO|MIGUEL HIDALGO|11560|EMERSON|HOMERO|CDMX|ENERGYM, SA DE CV|ENERGYM,SA DE CV|ENERGYM
6343.0|9222472.0|713943.0|22.0|9222472.0|11009713943000132000000000U8|GIMNACIO ENERGYM||GUANAJUATO|Comonfort|38210.0|713943.0|Centros de acondicionamiento físico del sector privado|2019-11||20.66918189|-100.74839411|6 a 10 personas|6|10|ENERGYM,SA DE CV|||HOMERO|440||PALMAS POLANCO|MIGUEL HIDALGO|11560|EMERSON|HOMERO|CDMX|ENERGYM, SA DE CV|ENERGYM,SA DE CV|ENERGYM
6343.0|7951741.0|713943.0|23.0|7951741.0|11020713943006571000000000U8|GIMNASIO ENERGYM||GUANAJUATO|León|37250.0|713943.0|Centros de acondicionamiento físico del sector privado|2019-11||21.13457892|-101.65102671|0 a 5 personas|0|5|ENERGYM,SA DE CV|||HOMERO|440||PALMAS POLANCO|MIGUEL HIDALGO|11560|EMERSON|HOMERO|CDMX|ENERGYM, SA DE CV|ENERGYM,SA DE CV|ENERGYM
6343.0|7958032.0|713943.0|24.0|7958032.0|12058713943000101000000000U9|ENERGYM||GUERRERO|Teloloapan|40400.0|713943.0|Centros de acondicionamiento físico del sector privado|2019-11||18.36777501|-99.86148379|0 a 5 personas|0|5|ENERGYM,SA DE CV|||HOMERO|440||PALMAS POLANCO|MIGUEL HIDALGO|11560|EMERSON|HOMERO|CDMX|ENERGYM, SA DE CV|ENERGYM,SA DE CV|ENERGYM
6343.0|9197680.0|713943.0|25.0|9197680.0|12029713943000901000000000U3|ENERGYM||GUERRERO|Chilpancingo de los Bravo|39000.0|713943.0|Centros de acondicionamiento físico del sector privado|2019-11||17.55106425|-99.50205023|0 a 5 personas|0|5|ENERGYM,SA DE CV|||HOMERO|440||PALMAS POLANCO|MIGUEL HIDALGO|11560|EMERSON|HOMERO|CDMX|ENERGYM, SA DE CV|ENERGYM,SA DE CV|ENERGYM
6343.0|7958629.0|713943.0|26.0|7958629.0|12049713943000011000000000U9|ENERGYM GIMNASIO||GUERRERO|Pilcaya|40380.0|713943.0|Centros de acondicionamiento físico del sector privado|2019-11||18.74274078|-99.67482599|0 a 5 personas|0|5|ENERGYM,SA DE CV|||HOMERO|440||PALMAS POLANCO|MIGUEL HIDALGO|11560|EMERSON|HOMERO|CDMX|ENERGYM, SA DE CV|ENERGYM,SA DE CV|ENERGYM
6343.0|8139900.0|713943.0|27.0|8139900.0|12001713943002111000000000U6|GAP ENERGYM||GUERRERO|Acapulco de Juárez|39700.0|713943.0|Centros de acondicionamiento físico del sector privado|2019-11||16.8917176|-99.83520308|0 a 5 personas|0|5|ENERGYM,SA DE CV|||HOMERO|440||PALMAS POLANCO|MIGUEL HIDALGO|11560|EMERSON|HOMERO|CDMX|ENERGYM, SA DE CV|ENERGYM,SA DE CV|ENERGYM
6343.0|7918130.0|713943.0|28.0|7918130.0|12035713943000252000000000U8|GIMNACIO DE APARATOS ENERGYM FITNESS||GUERRERO|Iguala de la Independencia|40068.0|713943.0|Centros de acondicionamiento físico del sector privado|2019-11||18.33777704|-99.55064255|6 a 10 personas|6|10|ENERGYM,SA DE CV|||HOMERO|440||PALMAS POLANCO|MIGUEL HIDALGO|11560|EMERSON|HOMERO|CDMX|ENERGYM, SA DE CV|ENERGYM,SA DE CV|ENERGYM
6343.0|8526008.0|713943.0|29.0|8526008.0|12001713943001541000000000U5|GIMNASIO GAP ENERGYM||GUERRERO|Acapulco de Juárez|39700.0|713943.0|Centros de acondicionamiento físico del sector privado|2019-11||16.89144777|-99.83537335|0 a 5 personas|0|5|ENERGYM,SA DE CV|||HOMERO|440||PALMAS POLANCO|MIGUEL HIDALGO|11560|EMERSON|HOMERO|CDMX|ENERGYM, SA DE CV|ENERGYM,SA DE CV|ENERGYM
6343.0|1624813.0|713943.0|30.0|1624813.0|13048713943000422000000000U9|GIMNASIO ENERGYM||HIDALGO|Pachuca de Soto|42084.0|713943.0|Centros de acondicionamiento físico del sector privado|2010-07||20.08667585|-98.77835785|0 a 5 personas|0|5|ENERGYM,SA DE CV|||HOMERO|440||PALMAS POLANCO|MIGUEL HIDALGO|11560|EMERSON|HOMERO|CDMX|ENERGYM, SA DE CV|ENERGYM,SA DE CV|ENERGYM
6343.0|7352741.0|713943.0|31.0|7352741.0|14083713943000291000000000U4|ENERGYM||JALISCO|Tala|45308.0|713943.0|Centros de acondicionamiento físico del sector privado|2019-11||20.65856845|-103.70808153|0 a 5 personas|0|5|ENERGYM,SA DE CV|||HOMERO|440||PALMAS POLANCO|MIGUEL HIDALGO|11560|EMERSON|HOMERO|CDMX|ENERGYM, SA DE CV|ENERGYM,SA DE CV|ENERGYM
6343.0|7491084.0|713943.0|32.0|7491084.0|14021713943000092000000000U6|ENERGYM||JALISCO|Casimiro Castillo|48946.0|713943.0|Centros de acondicionamiento físico del sector privado|2019-11||19.55053438|-104.48410355|6 a 10 personas|6|10|ENERGYM,SA DE CV|||HOMERO|440||PALMAS POLANCO|MIGUEL HIDALGO|11560|EMERSON|HOMERO|CDMX|ENERGYM, SA DE CV|ENERGYM,SA DE CV|ENERGYM
6343.0|9098295.0|713943.0|33.0|9098295.0|14018713943000192000000000U0|ENERGYM||JALISCO|La Barca|47910.0|713943.0|Centros de acondicionamiento físico del sector privado|2019-11||20.2782647|-102.55035073|6 a 10 personas|6|10|ENERGYM,SA DE CV|||HOMERO|440||PALMAS POLANCO|MIGUEL HIDALGO|11560|EMERSON|HOMERO|CDMX|ENERGYM, SA DE CV|ENERGYM,SA DE CV|ENERGYM
6343.0|7406136.0|713943.0|34.0|7406136.0|14101713943001691000000000U4|ENERGYM L||JALISCO|Tonalá|45400.0|713943.0|Centros de acondicionamiento físico del sector privado|2019-11||20.62400441|-103.24407471|0 a 5 personas|0|5|ENERGYM,SA DE CV|||HOMERO|440||PALMAS POLANCO|MIGUEL HIDALGO|11560|EMERSON|HOMERO|CDMX|ENERGYM, SA DE CV|ENERGYM,SA DE CV|ENERGYM
6343.0|1632475.0|713943.0|35.0|1632475.0|14120611621000251000000000U3|GIMNASIO ENERGYM||JALISCO|Zapopan|45180.0|713943.0|Centros de acondicionamiento físico del sector privado|2010-07||20.73947065|-103.3513121|0 a 5 personas|0|5|ENERGYM,SA DE CV|||HOMERO|440||PALMAS POLANCO|MIGUEL HIDALGO|11560|EMERSON|HOMERO|CDMX|ENERGYM, SA DE CV|ENERGYM,SA DE CV|ENERGYM
6343.0|1916548.0|713943.0|36.0|1916548.0|14120713943001082001000000U6|GIMNASIO ENERGYM||JALISCO|Zapopan|45080.0|713943.0|Centros de acondicionamiento físico del sector privado|2010-07|WWW.ENERGYMPINARDELACALMA.COM|20.6198693|-103.41770756|6 a 10 personas|6|10|ENERGYM,SA DE CV|||HOMERO|440||PALMAS POLANCO|MIGUEL HIDALGO|11560|EMERSON|HOMERO|CDMX|ENERGYM, SA DE CV|ENERGYM,SA DE CV|ENERGYM
6343.0|2153668.0|713943.0|37.0|2153668.0|15033713943000051000000000S6|ENERGYM||MÉXICO|Ecatepec de Morelos|55119.0|713943.0|Centros de acondicionamiento físico del sector privado|2010-07||19.57353183|-99.02629347|0 a 5 personas|0|5|ENERGYM,SA DE CV|||HOMERO|440||PALMAS POLANCO|MIGUEL HIDALGO|11560|EMERSON|HOMERO|CDMX|ENERGYM, SA DE CV|ENERGYM,SA DE CV|ENERGYM
6343.0|2203994.0|713943.0|38.0|2203994.0|15057713943000941000000000U7|ENERGYM||MÉXICO|Naucalpan de Juárez|53420.0|713943.0|Centros de acondicionamiento físico del sector privado|2014-12||19.46692391|-99.25948312|0 a 5 personas|0|5|ENERGYM,SA DE CV|||HOMERO|440||PALMAS POLANCO|MIGUEL HIDALGO|11560|EMERSON|HOMERO|CDMX|ENERGYM, SA DE CV|ENERGYM,SA DE CV|ENERGYM
6343.0|2209629.0|713943.0|39.0|2209629.0|15013713943000741000000000U4|ENERGYM||MÉXICO|Atizapán de Zaragoza|52990.0|713943.0|Centros de acondicionamiento físico del sector privado|2014-12||19.53507185|-99.24595886|0 a 5 personas|0|5|ENERGYM,SA DE CV|||HOMERO|440||PALMAS POLANCO|MIGUEL HIDALGO|11560|EMERSON|HOMERO|CDMX|ENERGYM, SA DE CV|ENERGYM,SA DE CV|ENERGYM
6343.0|2311765.0|713943.0|40.0|2311765.0|15033713943004351000000000U6|ENERGYM||MÉXICO|Ecatepec de Morelos|55067.0|713943.0|Centros de acondicionamiento físico del sector privado|2014-12||19.6443415|-98.98913541|0 a 5 personas|0|5|ENERGYM,SA DE CV|||HOMERO|440||PALMAS POLANCO|MIGUEL HIDALGO|11560|EMERSON|HOMERO|CDMX|ENERGYM, SA DE CV|ENERGYM,SA DE CV|ENERGYM
6343.0|8479093.0|713943.0|41.0|8479093.0|15115713943000221000000000U0|ENERGYM||MÉXICO|Xonacatlán|52060.0|713943.0|Centros de acondicionamiento físico del sector privado|2019-11||19.40499189|-99.5281547|0 a 5 personas|0|5|ENERGYM,SA DE CV|||HOMERO|440||PALMAS POLANCO|MIGUEL HIDALGO|11560|EMERSON|HOMERO|CDMX|ENERGYM, SA DE CV|ENERGYM,SA DE CV|ENERGYM
6343.0|8459279.0|713943.0|42.0|8459279.0|15106713943002571000000000U5|ENERGYM|ENERGYM |MÉXICO|Toluca|50010.0|713943.0|Centros de acondicionamiento físico del sector privado|2019-11||19.31213149|-99.62313669|0 a 5 personas|0|5|ENERGYM,SA DE CV|||HOMERO|440||PALMAS POLANCO|MIGUEL HIDALGO|11560|EMERSON|HOMERO|CDMX|ENERGYM, SA DE CV|ENERGYM,SA DE CV|ENERGYM
6343.0|2432343.0|713943.0|43.0|2432343.0|15106713943002181000000000U3|ENERGYM||MÉXICO|Toluca|50240.0|713943.0|Centros de acondicionamiento físico del sector privado|2014-12||19.29859579|-99.59404283|0 a 5 personas|0|5|ENERGYM,SA DE CV|||HOMERO|440||PALMAS POLANCO|MIGUEL HIDALGO|11560|EMERSON|HOMERO|CDMX|ENERGYM, SA DE CV|ENERGYM,SA DE CV|ENERGYM
6343.0|8762134.0|713943.0|44.0|8762134.0|15006713943000051000000000U2|ENERGYM FITNESS CLUB||MÉXICO|Almoloya del Río|52540.0|713943.0|Centros de acondicionamiento físico del sector privado|2019-11||19.16044245|-99.48722812|0 a 5 personas|0|5|ENERGYM,SA DE CV|||HOMERO|440||PALMAS POLANCO|MIGUEL HIDALGO|11560|EMERSON|HOMERO|CDMX|ENERGYM, SA DE CV|ENERGYM,SA DE CV|ENERGYM
6343.0|8548470.0|713943.0|45.0|8548470.0|15002713943000381000000000U2|ENERGYM GIMNASIO||MÉXICO|Acolman|55885.0|713943.0|Centros de acondicionamiento físico del sector privado|2019-11||19.61448473|-98.93646436|0 a 5 personas|0|5|ENERGYM,SA DE CV|||HOMERO|440||PALMAS POLANCO|MIGUEL HIDALGO|11560|EMERSON|HOMERO|CDMX|ENERGYM, SA DE CV|ENERGYM,SA DE CV|ENERGYM
6343.0|2351943.0|713943.0|46.0|2351943.0|15070713943000561001000000U6|GIMNACIO ENERGYM||MÉXICO|La Paz|56430.0|713943.0|Centros de acondicionamiento físico del sector privado|2014-12||19.36321697|-98.97200672|6 a 10 personas|6|10|ENERGYM,SA DE CV|||HOMERO|440||PALMAS POLANCO|MIGUEL HIDALGO|11560|EMERSON|HOMERO|CDMX|ENERGYM, SA DE CV|ENERGYM,SA DE CV|ENERGYM
6343.0|2230574.0|713943.0|47.0|2230574.0|15104713943001401000000000U1|GIMNASIO ENERGYM||MÉXICO|Tlalnepantla de Baz|54054.0|713943.0|Centros de acondicionamiento físico del sector privado|2014-12||19.52885422|-99.23284696|0 a 5 personas|0|5|ENERGYM,SA DE CV|||HOMERO|440||PALMAS POLANCO|MIGUEL HIDALGO|11560|EMERSON|HOMERO|CDMX|ENERGYM, SA DE CV|ENERGYM,SA DE CV|ENERGYM
6343.0|2154380.0|713943.0|48.0|2154380.0|15020713943000101000000000U6|GYMNASIO ENERGYM||MÉXICO|Coacalco de Berriozábal|55700.0|713943.0|Centros de acondicionamiento físico del sector privado|2010-07||19.62753633|-99.10353207|0 a 5 personas|0|5|ENERGYM,SA DE CV|||HOMERO|440||PALMAS POLANCO|MIGUEL HIDALGO|11560|EMERSON|HOMERO|CDMX|ENERGYM, SA DE CV|ENERGYM,SA DE CV|ENERGYM
6343.0|8452112.0|713943.0|49.0|8452112.0|16053713943003971000000000S9|AEROBICS ENERGYM||MICHOACÁN DE OCAMPO|Morelia|58128.0|713943.0|Centros de acondicionamiento físico del sector privado|2019-11||19.73346501|-101.18012333|0 a 5 personas|0|5|ENERGYM,SA DE CV|||HOMERO|440||PALMAS POLANCO|MIGUEL HIDALGO|11560|EMERSON|HOMERO|CDMX|ENERGYM, SA DE CV|ENERGYM,SA DE CV|ENERGYM
6343.0|8475357.0|713943.0|50.0|8475357.0|16053713943002801000000000U9|CARDIO ENERGYM||MICHOACÁN DE OCAMPO|Morelia|58110.0|713943.0|Centros de acondicionamiento físico del sector privado|2019-11||19.71757356|-101.19683934|0 a 5 personas|0|5|ENERGYM,SA DE CV|||HOMERO|440||PALMAS POLANCO|MIGUEL HIDALGO|11560|EMERSON|HOMERO|CDMX|ENERGYM, SA DE CV|ENERGYM,SA DE CV|ENERGYM
6344.0|763739.0|466311.0|51.0|763739.0|09016466311000382000000000U7|DECO HOUSE POLANCO|DECO HOUSE POLANCO SA DE CV|CIUDAD DE MÉXICO|Miguel Hidalgo|11560.0|466311.0|Comercio al por menor de alfombras, cortinas, tapices y similares|2010-07|WWW.DECOHOUSE.COM.MX|19.43540306|-99.1891099|6 a 10 personas|6|10|DECO HOUSE POLANCO S|A DE CV||HOMERO|502|LOCAL B|POLANCO V SECCION|MIGUEL HIDALGO|11560|||CDMX|DECO HOUSE POLANCO  SA DE CV|DECO HOUSE POLANCO SA DE CV|DECO HOUSE POLANCO 
6347.0|895027.0|435412.0|52.0|895027.0|09015435412000831001000000U9|BOJMA DE MEXICO|BOJMA DE MEXICO SA DE CV|CIUDAD DE MÉXICO|Cuauhtémoc|6600.0|435412.0|Comercio al por mayor de mobiliario y equipo de oficina|2014-12||19.42713278|-99.16263447|6 a 10 personas|6|10|BOJMA DE MEXICO SA D|E CV||HAMBURGO|70|206|JUAREZ|CUAUHTEMOC|6600|HAVRE|NIZA|CDMX|BOJMA DE MEXICO  SA DE CV|BOJMA DE MEXICO SA DE CV|BOJMA DE MEXICO 
6353.0|7934572.0|332999.0|53.0|7934572.0|09002332999000272000000000U4|LGO RACKS|LGO RACKS SA DE CV|CIUDAD DE MÉXICO|Azcapotzalco|2240.0|332999.0|Fabricación de otros productos metálicos|2019-11|WWW.LGORACKS.COM|19.49406475|-99.18459291|6 a 10 personas|6|10|LGO RACKS SA DE CV|||PONIENTE 152 1000|TORRE A|3|MARAVILLAS CEYLAN|TLALNEPANTLA DE BAZ|54173|CEYLAN0|MARAVILLAS0|Estado de Mexico|LGO RACKS  SA DE CV|LGO RACKS SA DE CV|LGO RACKS 
6355.0|6695910.0|541810.0|54.0|6695910.0|09014484129000321000000000U4|SLANG SA DE CV|SLANG SA DE CV|CIUDAD DE MÉXICO|Benito Juárez||541810.0|Agencias de publicidad|2016-01|WWW.SLANG.COM.MX|19.39503746|-99.18856904|0 a 5 personas|0|5|SLANG,SA DE CV|||HEROES DE LA INTERVENCION|51||8 DE AGOSTO|BENITO JUAREZ|3820|X|Y|CDMX|SLANG, SA DE CV|SLANG,SA DE CV|SLANG
6359.0|6199473.0|326110.0|55.0|6199473.0|09015326110000101001000000U9|MEXINEX|MEXINEX SA DE CV|CIUDAD DE MÉXICO|Cuauhtémoc|6450.0|326110.0|Fabricación de bolsas y películas de plástico flexible|2010-07||19.45967953|-99.15870221|31 a 50 personas|31|50|MEXINEX SA DE CV|||SABINO|376||ATLAMPA|CUAUHTEMOC|6450|CDA DE SABINO|EULALIA GUZMAN|CDMX|MEXINEX  SA DE CV|MEXINEX SA DE CV|MEXINEX 
6371.0|812166.0|493120.0|56.0|812166.0|09006493120000032001019012M1|FRIO DE NEPAL|FRIO DE NEPAL SA DE CV|CIUDAD DE MÉXICO|Iztacalco|8500.0|493120.0|Almacenamiento con refrigeración|2010-07||19.40106374|-99.06649936|0 a 5 personas|0|5|FRIO DE NEPAL SA DE|CV||OTE 249|73||AGRICOLA ORIENTAL|IZTACALCO|8500|||CDMX|FRIO DE NEPAL  SA DE CV|FRIO DE NEPAL SA DECV|FRIO DE NEPAL 
6371.0|970699.0|493120.0|57.0|970699.0|09013493120000013001019012S7|FRIO SUR|FRIO DE NEPAL SA DE CV|CIUDAD DE MÉXICO|Xochimilco|16020.0|493120.0|Almacenamiento con refrigeración|2010-07||19.27777854|-99.13346851|6 a 10 personas|6|10|FRIO DE NEPAL SA DE|CV||OTE 249|73||AGRICOLA ORIENTAL|IZTACALCO|8500|||CDMX|FRIO DE NEPAL  SA DE CV|FRIO DE NEPAL SA DECV|FRIO DE NEPAL 
6373.0|8939623.0|461150.0|58.0|8939623.0|15003461150000241000000000U2|QUESOS EL PORTAL||MÉXICO|Aculco|50360.0|461150.0|Comercio al por menor de leche, otros productos lácteos y embutidos|2019-11||20.09983185|-99.82782281|0 a 5 personas|0|5|QUESO PORTALES SA DE|CV||PASEO PETIRROJO|27||LOMAS VERDES 1A SECCION|NAUCALPAN DE JUAREZ|53120|CALZADA COLTONGO|PROLONGACION NORTE 100 ME|Estado de Mexico|QUESO PORTALES SA DE CV|QUESO PORTALES SA DECV|QUESO PORTALES 
6373.0|2193918.0|461150.0|59.0|2193918.0|15121461150000021000000000U8|QUESOS LOS PORTALES||MÉXICO|Cuautitlán Izcalli|54714.0|461150.0|Comercio al por menor de leche, otros productos lácteos y embutidos|2010-07||19.67806904|-99.17857253|0 a 5 personas|0|5|QUESO PORTALES SA DE|CV||PASEO PETIRROJO|27||LOMAS VERDES 1A SECCION|NAUCALPAN DE JUAREZ|53120|CALZADA COLTONGO|PROLONGACION NORTE 100 ME|Estado de Mexico|QUESO PORTALES SA DE CV|QUESO PORTALES SA DECV|QUESO PORTALES 
6374.0|6258087.0|434211.0|60.0|6258087.0|09016434211000081000002596S6|FERRETEROS UNIDOS|FERRETEROS UNIDOS SA DE CV|CIUDAD DE MÉXICO|Miguel Hidalgo|11320.0|434211.0|Comercio al por mayor de cemento, tabique y grava|2010-07||19.44609502|-99.16976505|0 a 5 personas|0|5|FERRETEROS UNIDOS, S|#A# DE C#V#||MAR TIRRENO|200||TACUBA|MIGUEL HIDALGO|11410|NO INFORMADO|NO INFORMA|CDMX|FERRETEROS UNIDOS,  SA DE CV|FERRETEROS UNIDOS, S#A# DE C#V#|FERRETEROS UNIDOS 
6374.0|6258089.0|434211.0|61.0|6258089.0|09016434211000574000002596M0|FERRETEROS UNIDOS|FERRETEROS UNIDOS SA DE CV|CIUDAD DE MÉXICO|Miguel Hidalgo|11410.0|434211.0|Comercio al por mayor de cemento, tabique y grava|2010-07||19.45727634|-99.18318074|11 a 30 personas|11|30|FERRETEROS UNIDOS, S|#A# DE C#V#||MAR TIRRENO|200||TACUBA|MIGUEL HIDALGO|11410|NO INFORMADO|NO INFORMA|CDMX|FERRETEROS UNIDOS,  SA DE CV|FERRETEROS UNIDOS, S#A# DE C#V#|FERRETEROS UNIDOS 
6374.0|1119251.0|467111.0|62.0|1119251.0|11027467111001193000000000U3|FERRETERAS UNIDAS|FERRETERAS UNIDAS SA DE CV|GUANAJUATO|Salamanca|36740.0|467111.0|Comercio al por menor en ferreterías y tlapalerías|2010-07||20.57506763|-101.21276731|11 a 30 personas|11|30|FERRETEROS UNIDOS, S|#A# DE C#V#||MAR TIRRENO|200||TACUBA|MIGUEL HIDALGO|11410|NO INFORMADO|NO INFORMA|CDMX|FERRETEROS UNIDOS,  SA DE CV|FERRETEROS UNIDOS, S#A# DE C#V#|FERRETEROS UNIDOS 
6389.0|22981.0|465215.0|63.0|22981.0|01001465215000961000000000U2|SUPER MODA TIENDA DE TRAJES DE BAÑO||AGUASCALIENTES|Aguascalientes|20000.0|465215.0|Comercio al por menor de artículos y aparatos deportivos|2010-07||21.87928963|-102.29933022|0 a 5 personas|0|5|MODA EN TRAJES SA DE|CV||EJE CENTRAL LAZARO CARDENAS|103||CENTRO AREA 7|CUAUHTEMOC|6070|DELICIAS|VIZCAINAS|CDMX|MODA EN TRAJES SA DE CV|MODA EN TRAJES SA DECV|MODA EN TRAJES 
6389.0|20646.0|532281.0|64.0|20646.0|01001532220000011000000000U5|RENTA DE TRAJES MODA Y ESTILO||AGUASCALIENTES|Aguascalientes|20000.0|532281.0|Alquiler de prendas de vestir|2010-07||21.87961474|-102.28901145|0 a 5 personas|0|5|MODA EN TRAJES SA DE|CV||EJE CENTRAL LAZARO CARDENAS|103||CENTRO AREA 7|CUAUHTEMOC|6070|DELICIAS|VIZCAINAS|CDMX|MODA EN TRAJES SA DE CV|MODA EN TRAJES SA DECV|MODA EN TRAJES 
6389.0|7071817.0|315229.0|65.0|7071817.0|07089315229000421000000000S9|CONFECCIONES DE TRAJES FG MODA INTELIGENTE||CHIAPAS|Tapachula|30700.0|315229.0|Confección en serie de otra ropa exterior de materiales textiles|2019-11|WWW.MODAINTELIGENTE.COM.MX962|14.91074429|-92.26189387|0 a 5 personas|0|5|MODA EN TRAJES SA DE|CV||EJE CENTRAL LAZARO CARDENAS|103||CENTRO AREA 7|CUAUHTEMOC|6070|DELICIAS|VIZCAINAS|CDMX|MODA EN TRAJES SA DE CV|MODA EN TRAJES SA DECV|MODA EN TRAJES 
6389.0|620840.0|463214.0|66.0|620840.0|08037463211000331010000000U6|TRAJES DE MODA ETON|COMERCIALIZADORA ETON SA DE CV|CHIHUAHUA|Juárez|32000.0|463214.0|Comercio al por menor de disfraces, vestimenta regional y vestidos de novia|2010-07||31.67661415|-106.42404991|0 a 5 personas|0|5|MODA EN TRAJES SA DE|CV||EJE CENTRAL LAZARO CARDENAS|103||CENTRO AREA 7|CUAUHTEMOC|6070|DELICIAS|VIZCAINAS|CDMX|MODA EN TRAJES SA DE CV|MODA EN TRAJES SA DECV|MODA EN TRAJES 
6389.0|8625630.0|463214.0|67.0|8625630.0|09015463214012061000000000U4|TRAJES LA MODA||CIUDAD DE MÉXICO|Cuauhtémoc|6010.0|463214.0|Comercio al por menor de disfraces, vestimenta regional y vestidos de novia|2019-11|IXCA_CIEMFUEGOSHOTMAIL.COM|19.44028176|-99.13321875|0 a 5 personas|0|5|MODA EN TRAJES SA DE|CV||EJE CENTRAL LAZARO CARDENAS|103||CENTRO AREA 7|CUAUHTEMOC|6070|DELICIAS|VIZCAINAS|CDMX|MODA EN TRAJES SA DE CV|MODA EN TRAJES SA DECV|MODA EN TRAJES 
6389.0|1078515.0|532281.0|68.0|1078515.0|10005541490000011000000000U3|RENTA DE TRAJES MODA PARA HOMBRE||DURANGO|Durango|34210.0|532281.0|Alquiler de prendas de vestir|2010-07||24.0426106|-104.64512141|0 a 5 personas|0|5|MODA EN TRAJES SA DE|CV||EJE CENTRAL LAZARO CARDENAS|103||CENTRO AREA 7|CUAUHTEMOC|6070|DELICIAS|VIZCAINAS|CDMX|MODA EN TRAJES SA DE CV|MODA EN TRAJES SA DECV|MODA EN TRAJES 
6389.0|1325695.0|532281.0|69.0|1325695.0|11002532220000011000000000U1|CENTURY MODA RENTA DE TRAJES PARA TODA OCACION||GUANAJUATO|Acámbaro|38600.0|532281.0|Alquiler de prendas de vestir|2010-07||20.03561478|-100.72620596|0 a 5 personas|0|5|MODA EN TRAJES SA DE|CV||EJE CENTRAL LAZARO CARDENAS|103||CENTRO AREA 7|CUAUHTEMOC|6070|DELICIAS|VIZCAINAS|CDMX|MODA EN TRAJES SA DE CV|MODA EN TRAJES SA DECV|MODA EN TRAJES 
6389.0|1468929.0|465215.0|70.0|1468929.0|12001465215001221000000000S7|TRAJES DE BAÑO ONDA DE MAR ACAPULCO|ONDA MAR MODA SAPI DE CV|GUERRERO|Acapulco de Juárez|39879.0|465215.0|Comercio al por menor de artículos y aparatos deportivos|2010-07|WWW.ONDADEMAR.CO|16.77328264|-99.77623116|0 a 5 personas|0|5|MODA EN TRAJES SA DE|CV||EJE CENTRAL LAZARO CARDENAS|103||CENTRO AREA 7|CUAUHTEMOC|6070|DELICIAS|VIZCAINAS|CDMX|MODA EN TRAJES SA DE CV|MODA EN TRAJES SA DECV|MODA EN TRAJES 
6389.0|2028972.0|315224.0|71.0|2028972.0|15058315224000031000000000U2|MODAS REGIONALES Y TRAJES DE FANTASIA SIN NOMBRE||MÉXICO|Nezahualcóyotl|57100.0|315224.0|Confección en serie de disfraces y trajes típicos|2010-07||19.49159031|-99.05649307|0 a 5 personas|0|5|MODA EN TRAJES SA DE|CV||EJE CENTRAL LAZARO CARDENAS|103||CENTRO AREA 7|CUAUHTEMOC|6070|DELICIAS|VIZCAINAS|CDMX|MODA EN TRAJES SA DE CV|MODA EN TRAJES SA DECV|MODA EN TRAJES 
6389.0|2138528.0|463214.0|72.0|2138528.0|15033463214000321000000000U1|RENTA DE TRAJES Y VESTIDOS ALTA MODA||MÉXICO|Ecatepec de Morelos|55000.0|463214.0|Comercio al por menor de disfraces, vestimenta regional y vestidos de novia|2010-07||19.60066958|-99.04710973|0 a 5 personas|0|5|MODA EN TRAJES SA DE|CV||EJE CENTRAL LAZARO CARDENAS|103||CENTRO AREA 7|CUAUHTEMOC|6070|DELICIAS|VIZCAINAS|CDMX|MODA EN TRAJES SA DE CV|MODA EN TRAJES SA DECV|MODA EN TRAJES 
6389.0|7094467.0|532281.0|73.0|7094467.0|17006532281000011000000000U8|ALQUILER DE TRAJES LA MODA ELEGANTE|LA MODA ELEGANTE |MORELOS|Cuautla|62744.0|532281.0|Alquiler de prendas de vestir|2019-11||18.82032875|-98.95240372|0 a 5 personas|0|5|MODA EN TRAJES SA DE|CV||EJE CENTRAL LAZARO CARDENAS|103||CENTRO AREA 7|CUAUHTEMOC|6070|DELICIAS|VIZCAINAS|CDMX|MODA EN TRAJES SA DE CV|MODA EN TRAJES SA DECV|MODA EN TRAJES 
6389.0|7839250.0|314991.0|74.0|7839250.0|20067314991000521000000000U1|ELABORACION DE TRAJES ARELLANAS MODA TRADICIONAL||OAXACA|Oaxaca de Juárez|68025.0|314991.0|Confección, bordado y deshilado de productos textiles|2019-11||17.08275397|-96.6953468|0 a 5 personas|0|5|MODA EN TRAJES SA DE|CV||EJE CENTRAL LAZARO CARDENAS|103||CENTRO AREA 7|CUAUHTEMOC|6070|DELICIAS|VIZCAINAS|CDMX|MODA EN TRAJES SA DE CV|MODA EN TRAJES SA DECV|MODA EN TRAJES 
6389.0|3768442.0|463214.0|75.0|3768442.0|25001463211003291010000000U4|EUROPA MODA EN TRAJES||SINALOA|Ahome|81200.0|463214.0|Comercio al por menor de disfraces, vestimenta regional y vestidos de novia|2010-07||25.79074459|-108.99342738|0 a 5 personas|0|5|MODA EN TRAJES SA DE|CV||EJE CENTRAL LAZARO CARDENAS|103||CENTRO AREA 7|CUAUHTEMOC|6070|DELICIAS|VIZCAINAS|CDMX|MODA EN TRAJES SA DE CV|MODA EN TRAJES SA DECV|MODA EN TRAJES 
6389.0|8908893.0|532281.0|76.0|8908893.0|28009532281000041000000000U6|RENTA DE VESTIDOS Y TRAJES ZORY MODA||TAMAULIPAS|Ciudad Madero|89450.0|532281.0|Alquiler de prendas de vestir|2019-11||22.24349008|-97.84017399|0 a 5 personas|0|5|MODA EN TRAJES SA DE|CV||EJE CENTRAL LAZARO CARDENAS|103||CENTRO AREA 7|CUAUHTEMOC|6070|DELICIAS|VIZCAINAS|CDMX|MODA EN TRAJES SA DE CV|MODA EN TRAJES SA DECV|MODA EN TRAJES 
6393.0|8038371.0|325610.0|77.0|8038371.0|15106325610000251000000000S1|BONDEX SA DE CV||MÉXICO|Toluca|50010.0|325610.0|Fabricación de jabones, limpiadores y dentífricos|2019-11||19.30640756|-99.60897108|0 a 5 personas|0|5|BONDEX,SA DE CV|||PRESIDENTE JUAREZ|115||SAN JERONIMO TEPETLA|TLALNEPANTLA DE BAZ|54090|CALLE 1|CALLE 2|Estado de Mexico|BONDEX, SA DE CV|BONDEX,SA DE CV|BONDEX
6393.0|3613887.0|467115.0|78.0|3613887.0|22014467115002242000000000U3|BONDEX|BONDEX SA DE CV|QUERÉTARO|Querétaro|76148.0|467115.0|Comercio al por menor de artículos para la limpieza|2010-07||20.63200696|-100.4024468|6 a 10 personas|6|10|BONDEX,SA DE CV|||PRESIDENTE JUAREZ|115||SAN JERONIMO TEPETLA|TLALNEPANTLA DE BAZ|54090|CALLE 1|CALLE 2|Estado de Mexico|BONDEX, SA DE CV|BONDEX,SA DE CV|BONDEX
6394.0|6348073.0|315229.0|79.0|6348073.0|15057315229000635001000000U1|ACTION GROUP CO|ACTION GROUP CO SA DE CV|MÉXICO|Naucalpan de Juárez|53500.0|315229.0|Confección en serie de otra ropa exterior de materiales textiles|2010-07||19.46287778|-99.23352969|101 a 250 personas|101|250|ACTION GROUP CO SA D|E CV||FRANCISCO I MADERO|142 144|144|INDUSTRIAL ATOTO|NAUCALPAN DE JUAREZ|53519|SAN ANDRES ATOTO|GUANAJUATO|Estado de Mexico|ACTION GROUP CO  SA DE CV|ACTION GROUP CO SA DE CV|ACTION GROUP CO 
6397.0|6866252.0|238330.0|80.0|6866252.0|09016238330000033001000000U3|GLOBAL WOODS|GLOBAL WOODS SA DE CV|CIUDAD DE MÉXICO|Miguel Hidalgo|11000.0|238330.0|Colocación de pisos flexibles y de madera|2019-04||19.424414|-99.204334|0 a 5 personas|0|5|GLOBAL WOODS SA DE C|V||AV LOMAS DE SOTELO|1112 203|204 205|LOMAS HERMOSA|MIGUEL HIDALGO|11200|ING MILITARES|PRESA TEPUXTEPEC|CDMX|GLOBAL WOODS  SA DE CV|GLOBAL WOODS SA DE CV|GLOBAL WOODS 
6398.0|9290612.0|434225.0|81.0|9290612.0|19019434225000471000000000U1|GTEC|ILUMINACION |NUEVO LEÓN|San Pedro Garza García|66220.0|434225.0|Comercio al por mayor de equipo y material eléctrico|2020-11||25.6605509|-100.36755534|0 a 5 personas|0|5|GTEC ILUMINACION SA|DE CV||PALO ALTO|29|########|COOPERATIVA PALO ALT|CUAJIMALPA DE MORELOS|5110|CARRETERA FEDERAL MEXICO|FRESNOS|CDMX|GTEC ILUMINACION  SA DE CV|GTEC ILUMINACION SADE CV|GTEC ILUMINACION 
6401.0|2073214.0|464121.0|82.0|2073214.0|15104464121000311000000000U7|OPTICAS LA UNIVERSAL||MÉXICO|Tlalnepantla de Baz|54030.0|464121.0|Comercio al por menor de lentes|2010-07||19.55581774|-99.19342708|0 a 5 personas|0|5|OPTICAS UNIVERSAL, S|#A# DE C#V#||PROVIDENCIA|610||DEL VALLE|BENITO JUAREZ|3100|TORRES ADALID|LUZ AVI#O|CDMX|OPTICAS UNIVERSAL,  SA DE CV|OPTICAS UNIVERSAL, S#A# DE C#V#|OPTICAS UNIVERSAL 
6401.0|3066656.0|464121.0|83.0|3066656.0|20067464121000821000000000U7|OPTICAS UNIVERSAL||OAXACA|Oaxaca de Juárez|68000.0|464121.0|Comercio al por menor de lentes|2010-07||17.05721477|-96.72570308|0 a 5 personas|0|5|OPTICAS UNIVERSAL, S|#A# DE C#V#||PROVIDENCIA|610||DEL VALLE|BENITO JUAREZ|3100|TORRES ADALID|LUZ AVI#O|CDMX|OPTICAS UNIVERSAL,  SA DE CV|OPTICAS UNIVERSAL, S#A# DE C#V#|OPTICAS UNIVERSAL 
6403.0|6200034.0|722515.0|84.0|6200034.0|09016722212002791000000000S7|LA CREPA PARISIENNE|GRUPO CORPORATIVO ALANCAR SA DE CV|CIUDAD DE MÉXICO|Miguel Hidalgo|11700.0|722515.0|Cafeterías, fuentes de sodas, neverías, refresquerías y similares|2010-07||19.40301712|-99.24294557|0 a 5 personas|0|5|GRUPO CORPORATIVO AL|ANCAR SA DE CV||COLIMA|300||ROMA|CUAUHTEMOC|6700|||CDMX|GRUPO CORPORATIVO ALANCAR  SA DE CV|GRUPO CORPORATIVO ALANCAR SA DE CV|GRUPO CORPORATIVO ALANCAR 
6403.0|920596.0|722515.0|85.0|920596.0|09004722515000471000000000S0|LA CREPE PARISSIENNE|GRUPO CORPORATIVO ALANCAR SA DE CV|CIUDAD DE MÉXICO|Cuajimalpa de Morelos|5348.0|722515.0|Cafeterías, fuentes de sodas, neverías, refresquerías y similares|2014-12||19.36262855|-99.27443277|0 a 5 personas|0|5|GRUPO CORPORATIVO AL|ANCAR SA DE CV||COLIMA|300||ROMA|CUAUHTEMOC|6700|||CDMX|GRUPO CORPORATIVO ALANCAR  SA DE CV|GRUPO CORPORATIVO ALANCAR SA DE CV|GRUPO CORPORATIVO ALANCAR 
6403.0|8979048.0|461190.0|86.0|8979048.0|14120461190005481000000000S8|LA CREPE PARISIENNE|GRUPO CORPORATIVO ALANCAR SA DE CV|JALISCO|Zapopan|45160.0|461190.0|Comercio al por menor de otros alimentos|2019-11|WWW.LAPARISIENNE.COM.MX|20.71250145|-103.37565702|0 a 5 personas|0|5|GRUPO CORPORATIVO AL|ANCAR SA DE CV||COLIMA|300||ROMA|CUAUHTEMOC|6700|||CDMX|GRUPO CORPORATIVO ALANCAR  SA DE CV|GRUPO CORPORATIVO ALANCAR SA DE CV|GRUPO CORPORATIVO ALANCAR 
6405.0|1011609.0|461190.0|87.0|1011609.0|09004461190000851000000000U0|MERENGUES LITE AND LIGTH|LIGHT MANIA SA DE CV|CIUDAD DE MÉXICO|Cuajimalpa de Morelos|5129.0|461190.0|Comercio al por menor de otros alimentos|2010-07||19.38959278|-99.26006022|0 a 5 personas|0|5|LIGHT MANIA SA DE CV|||ENCINO|20||EL OLIVO|HUIXQUILUCAN|52789|SIN|DATOS|Estado de Mexico|LIGHT MANIA  SA DE CV|LIGHT MANIA SA DE CV|LIGHT MANIA 
6405.0|8347891.0|311820.0|88.0|8347891.0|15037311820000021000000000U6|LITE & LIGHT|LIGHT MANIA SA DE CV|MÉXICO|Huixquilucan|52764.0|311820.0|Elaboración de galletas y pastas para sopa|2019-11||19.39583433|-99.28902409|0 a 5 personas|0|5|LIGHT MANIA SA DE CV|||ENCINO|20||EL OLIVO|HUIXQUILUCAN|52789|SIN|DATOS|Estado de Mexico|LIGHT MANIA  SA DE CV|LIGHT MANIA SA DE CV|LIGHT MANIA 
6411.0|8939760.0|434221.0|89.0|8939760.0|13069434221000201000037801M2|BEFTCOM|BEFTCOM SA DE CV|HIDALGO|Tizayuca|43800.0|434221.0|Comercio al por mayor de materiales metálicos para la construcción y la manufactura|2019-11|WWW.BEFTCOM.COM.MX|19.82008002|-98.97078944|0 a 5 personas|0|5|BEFTCOM SA DE CV|||MOLDEADORES|LTE 5 A|MZ 3|TIZAYUCA CENTRO|TIZAYUCA|43800|BETTOBEN|JUVENTINO ROJAS|Hidalgo|BEFTCOM  SA DE CV|BEFTCOM SA DE CV|BEFTCOM 
6411.0|1622786.0|434222.0|90.0|1622786.0|13069434221000091000000000U7|BEFTCOM|BEFTCOM SA DE CV|HIDALGO|Tizayuca|43820.0|434222.0|Comercio al por mayor de productos químicos para la industria farmacéutica y para otro uso industrial|2010-07||19.81996572|-98.9708308|0 a 5 personas|0|5|BEFTCOM SA DE CV|||MOLDEADORES|LTE 5 A|MZ 3|TIZAYUCA CENTRO|TIZAYUCA|43800|BETTOBEN|JUVENTINO ROJAS|Hidalgo|BEFTCOM  SA DE CV|BEFTCOM SA DE CV|BEFTCOM 
6411.0|2200376.0|434221.0|91.0|2200376.0|15057434221000351000037801S8|BEFTCOM|BEFTCOM SA DE CV|MÉXICO|Naucalpan de Juárez|53950.0|434221.0|Comercio al por mayor de materiales metálicos para la construcción y la manufactura|2014-12|WWW.BEFTCOM.COM.MX|19.4286383|-99.22693384|0 a 5 personas|0|5|BEFTCOM SA DE CV|||MOLDEADORES|LTE 5 A|MZ 3|TIZAYUCA CENTRO|TIZAYUCA|43800|BETTOBEN|JUVENTINO ROJAS|Hidalgo|BEFTCOM  SA DE CV|BEFTCOM SA DE CV|BEFTCOM 
6419.0|6698740.0|435412.0|92.0|6698740.0|22014435412000271000000000U4|STILO CONCEPTO|STILO CONCEPTO SA DE CV|QUERÉTARO|Querétaro|76160.0|435412.0|Comercio al por mayor de mobiliario y equipo de oficina|2016-01|WWW.STILOCONCEPTOQUERETARO.COM|20.6071736|-100.37862696|0 a 5 personas|0|5|STILO CONCEPTO, SA D|E CV||DURANGO|25|SN|PROGRESO TIZAPAN|ALVARO OBREGON|1080|SAN JERONIMO|PERIFERICO SUR|CDMX|STILO CONCEPTO,  SA DE CV|STILO CONCEPTO, SA DE CV|STILO CONCEPTO 
6425.0|8443604.0|112512.0|93.0|8443604.0|01007112512000031000000000U8|GRANJA ACUÍCOLA PABELLON S DE R.L MI DE CV|GRANJA ACUICOLA PABELLON S DE RL MI DE CV|AGUASCALIENTES|Rincón de Romos|20437.0|112512.0|Piscicultura y otra acuicultura, excepto camaronicultura|2019-11||22.16834667|-102.3448475|0 a 5 personas|0|5|S & M ENTERPRISE SER|VICES SA DE CV||ADOLFO RUIZ CORTINES|3453|DESP 401|SAN JERONIMO LIDICE|LA MAGDALENA CONTRERAS|10200|CALLE 1|CALLE 2|CDMX|S & M ENTERPRISE SERVICES  SA DE CV|S & M ENTERPRISE SERVICES SA DE CV|S & M ENTERPRISE SERVICES 
6425.0|8624336.0|114119.0|94.0|8624336.0|01003114119000071000000000U5|MICHOACANEJO S DE RL MI DE CV|MICHOACANEJO S DE RL MI DE CV|AGUASCALIENTES|Calvillo|20860.0|114119.0|Pesca y captura de peces, crustáceos, moluscos y otras especies|2019-11||21.82179538|-102.76494632|0 a 5 personas|0|5|S & M ENTERPRISE SER|VICES SA DE CV||ADOLFO RUIZ CORTINES|3453|DESP 401|SAN JERONIMO LIDICE|LA MAGDALENA CONTRERAS|10200|CALLE 1|CALLE 2|CDMX|S & M ENTERPRISE SERVICES  SA DE CV|S & M ENTERPRISE SERVICES SA DE CV|S & M ENTERPRISE SERVICES 
6425.0|8443689.0|114119.0|95.0|8443689.0|01003114119000061000000000U6|PESCADORES JJ RUIZ S DE RL MI DE CV|PESCADORES JJ RUIZ S DE RL MI DE CV|AGUASCALIENTES|Calvillo|20820.0|114119.0|Pesca y captura de peces, crustáceos, moluscos y otras especies|2019-11||21.91972151|-102.70109803|0 a 5 personas|0|5|S & M ENTERPRISE SER|VICES SA DE CV||ADOLFO RUIZ CORTINES|3453|DESP 401|SAN JERONIMO LIDICE|LA MAGDALENA CONTRERAS|10200|CALLE 1|CALLE 2|CDMX|S & M ENTERPRISE SERVICES  SA DE CV|S & M ENTERPRISE SERVICES SA DE CV|S & M ENTERPRISE SERVICES 
6425.0|6166243.0|114119.0|96.0|6166243.0|01008114119000013001000000U6|SOCIEDAD DE PESCA  COMERCIAL Y DEPORTIVA DE SAN JOSE DE GRACIA|SOCIEDAD PISCICOLA COMERCIAL Y DEPORTIVA DE SAN JOSE DE GRACIA S DE PR DE RL|AGUASCALIENTES|San José de Gracia|20576.0|114119.0|Pesca y captura de peces, crustáceos, moluscos y otras especies|2010-07||22.14469|-102.41026|11 a 30 personas|11|30|S & M ENTERPRISE SER|VICES SA DE CV||ADOLFO RUIZ CORTINES|3453|DESP 401|SAN JERONIMO LIDICE|LA MAGDALENA CONTRERAS|10200|CALLE 1|CALLE 2|CDMX|S & M ENTERPRISE SERVICES  SA DE CV|S & M ENTERPRISE SERVICES SA DE CV|S & M ENTERPRISE SERVICES 
6425.0|6711615.0|212324.0|97.0|6711615.0|01001212321000062011000000U1|TIIPSA TECNOLOGÍAS EN INGENIERÍA E INNOVACIÓN DE PROCESOS SUSTENTABLES DE AGUASCALIENTES|TIIPSA S DE RL DE CV|AGUASCALIENTES|Aguascalientes|20290.0|212324.0|Minería de sílice|2016-01||21.83311988|-102.28201673|11 a 30 personas|11|30|S & M ENTERPRISE SER|VICES SA DE CV||ADOLFO RUIZ CORTINES|3453|DESP 401|SAN JERONIMO LIDICE|LA MAGDALENA CONTRERAS|10200|CALLE 1|CALLE 2|CDMX|S & M ENTERPRISE SERVICES  SA DE CV|S & M ENTERPRISE SERVICES SA DE CV|S & M ENTERPRISE SERVICES 
6425.0|19683.0|238210.0|98.0|19683.0|01001238290000072000000000U7|ABBA ENCLOSING MEETING|ABBA ENCLOSING MEETING S DE RL DE CV|AGUASCALIENTES|Aguascalientes|20280.0|238210.0|Instalaciones eléctricas en construcciones|2011-03||21.8553277|-102.30028616|0 a 5 personas|0|5|S & M ENTERPRISE SER|VICES SA DE CV||ADOLFO RUIZ CORTINES|3453|DESP 401|SAN JERONIMO LIDICE|LA MAGDALENA CONTRERAS|10200|CALLE 1|CALLE 2|CDMX|S & M ENTERPRISE SERVICES  SA DE CV|S & M ENTERPRISE SERVICES SA DE CV|S & M ENTERPRISE SERVICES 
6425.0|8499775.0|238320.0|99.0|8499775.0|01001238320000101000000000U9|AGSTLA|AGSTLA S DE RL DE CV|AGUASCALIENTES|Aguascalientes|20115.0|238320.0|Trabajos de pintura y otros cubrimientos de paredes|2019-11||21.92855063|-102.30387818|0 a 5 personas|0|5|S & M ENTERPRISE SER|VICES SA DE CV||ADOLFO RUIZ CORTINES|3453|DESP 401|SAN JERONIMO LIDICE|LA MAGDALENA CONTRERAS|10200|CALLE 1|CALLE 2|CDMX|S & M ENTERPRISE SERVICES  SA DE CV|S & M ENTERPRISE SERVICES SA DE CV|S & M ENTERPRISE SERVICES 
6425.0|6142429.0|236111.0|100.0|6142429.0|01001236111000561000000000U9|ANDA DESARROLLADORA|ANDA DESARROLLADORA S DE RL DE CV|AGUASCALIENTES|Aguascalientes|20326.0|236111.0|Edificación de vivienda unifamiliar|2020-11||21.87981797|-102.33590484|51 a 100 personas|51|100|S & M ENTERPRISE SER|VICES SA DE CV||ADOLFO RUIZ CORTINES|3453|DESP 401|SAN JERONIMO LIDICE|LA MAGDALENA CONTRERAS|10200|CALLE 1|CALLE 2|CDMX|S & M ENTERPRISE SERVICES  SA DE CV|S & M ENTERPRISE SERVICES SA DE CV|S & M ENTERPRISE SERVICES 
6425.0|6218.0|238190.0|101.0|6218.0|01001238190000051001000000U3|ARC S INGENIERÍA||AGUASCALIENTES|Aguascalientes|20290.0|238190.0|Otros trabajos en exteriores|2010-07||21.8599835|-102.28707291|11 a 30 personas|11|30|S & M ENTERPRISE SER|VICES SA DE CV||ADOLFO RUIZ CORTINES|3453|DESP 401|SAN JERONIMO LIDICE|LA MAGDALENA CONTRERAS|10200|CALLE 1|CALLE 2|CDMX|S & M ENTERPRISE SERVICES  SA DE CV|S & M ENTERPRISE SERVICES SA DE CV|S & M ENTERPRISE SERVICES 
6425.0|9283618.0|236112.0|102.0|9283618.0|01001236112000233000000000U3|CONSORCIO SAN IGNACIO S.A DE C.V|CONSORCIO SAN IGNACIO SA DE CV|AGUASCALIENTES|Aguascalientes||236112.0|Edificación de vivienda multifamiliar|2020-11||21.90233433|-102.34553278|11 a 30 personas|11|30|S & M ENTERPRISE SER|VICES SA DE CV||ADOLFO RUIZ CORTINES|3453|DESP 401|SAN JERONIMO LIDICE|LA MAGDALENA CONTRERAS|10200|CALLE 1|CALLE 2|CDMX|S & M ENTERPRISE SERVICES  SA DE CV|S & M ENTERPRISE SERVICES SA DE CV|S & M ENTERPRISE SERVICES 
6425.0|9317118.0|236221.0|103.0|9317118.0|01001236221001541000000000U6|CONSTRUCTORA GC MASTER|GC MASTER S DE RL DE CV|AGUASCALIENTES|Aguascalientes|20130.0|236221.0|Edificación de inmuebles comerciales y de servicios, excepto la supervisión|2020-11||21.91598155|-102.30907701|0 a 5 personas|0|5|S & M ENTERPRISE SER|VICES SA DE CV||ADOLFO RUIZ CORTINES|3453|DESP 401|SAN JERONIMO LIDICE|LA MAGDALENA CONTRERAS|10200|CALLE 1|CALLE 2|CDMX|S & M ENTERPRISE SERVICES  SA DE CV|S & M ENTERPRISE SERVICES SA DE CV|S & M ENTERPRISE SERVICES 
6425.0|9286452.0|236111.0|104.0|9286452.0|01001221121000023000000000U6|CONSTRUCTORA REG S A DE C V||AGUASCALIENTES|Aguascalientes|20020.0|236111.0|Edificación de vivienda unifamiliar|2020-11||21.89845523|-102.29793524|11 a 30 personas|11|30|S & M ENTERPRISE SER|VICES SA DE CV||ADOLFO RUIZ CORTINES|3453|DESP 401|SAN JERONIMO LIDICE|LA MAGDALENA CONTRERAS|10200|CALLE 1|CALLE 2|CDMX|S & M ENTERPRISE SERVICES  SA DE CV|S & M ENTERPRISE SERVICES SA DE CV|S & M ENTERPRISE SERVICES 
6425.0|6142378.0|236221.0|105.0|6142378.0|01001236221000853000000000U7|DESARROLLADORA EN SISTEMAS DE EDIFICACIONES|DESARROLLADORA EN SISTEMAS DE EDIFICACIONES S DE RL DE CV|AGUASCALIENTES|Aguascalientes||236221.0|Edificación de inmuebles comerciales y de servicios, excepto la supervisión|2014-12||21.88810059|-102.27341118|11 a 30 personas|11|30|S & M ENTERPRISE SER|VICES SA DE CV||ADOLFO RUIZ CORTINES|3453|DESP 401|SAN JERONIMO LIDICE|LA MAGDALENA CONTRERAS|10200|CALLE 1|CALLE 2|CDMX|S & M ENTERPRISE SERVICES  SA DE CV|S & M ENTERPRISE SERVICES SA DE CV|S & M ENTERPRISE SERVICES 
6425.0|9320141.0|237999.0|106.0|9320141.0|01001237999000193000000000U0|DESARROLLADORA Y CONSTRUCTORA JONCO S A DE C V|DESARROLLADORA Y CONSTRUCTORA JONCO SA DE CV|AGUASCALIENTES|Aguascalientes||237999.0|Otras construcciones de ingeniería civil|2020-11||21.91696343|-102.31371631|11 a 30 personas|11|30|S & M ENTERPRISE SER|VICES SA DE CV||ADOLFO RUIZ CORTINES|3453|DESP 401|SAN JERONIMO LIDICE|LA MAGDALENA CONTRERAS|10200|CALLE 1|CALLE 2|CDMX|S & M ENTERPRISE SERVICES  SA DE CV|S & M ENTERPRISE SERVICES SA DE CV|S & M ENTERPRISE SERVICES 
6425.0|9122478.0|238210.0|107.0|9122478.0|01001238210000703000000000U5|ELECTRICA AMCO S DE RL DE CV|ELECTRICA AMCO S DE RL DE CV|AGUASCALIENTES|Aguascalientes|20270.0|238210.0|Instalaciones eléctricas en construcciones|2019-11||21.86998616|-102.29021424|11 a 30 personas|11|30|S & M ENTERPRISE SER|VICES SA DE CV||ADOLFO RUIZ CORTINES|3453|DESP 401|SAN JERONIMO LIDICE|LA MAGDALENA CONTRERAS|10200|CALLE 1|CALLE 2|CDMX|S & M ENTERPRISE SERVICES  SA DE CV|S & M ENTERPRISE SERVICES SA DE CV|S & M ENTERPRISE SERVICES 
6425.0|6862090.0|236211.0|108.0|6862090.0|01001236211000315001000000U8|ESTRUCTURAS Y CONSTRUCCIONES HAASO S A DE C V|ESTRUCTURAS Y CONSTRUCCIONES HAASO SA DE CV|AGUASCALIENTES|Aguascalientes|20126.0|236211.0|Edificación de naves y plantas industriales, excepto la supervisión|2019-04||21.92065986|-102.27873378|11 a 30 personas|11|30|S & M ENTERPRISE SER|VICES SA DE CV||ADOLFO RUIZ CORTINES|3453|DESP 401|SAN JERONIMO LIDICE|LA MAGDALENA CONTRERAS|10200|CALLE 1|CALLE 2|CDMX|S & M ENTERPRISE SERVICES  SA DE CV|S & M ENTERPRISE SERVICES SA DE CV|S & M ENTERPRISE SERVICES 
6425.0|33023.0|236211.0|109.0|33023.0|01001238210000393010000000U5|GRUPO CONSTRUCTOR BUGACHI S. DE R.L. DE C.V.|GRUPO CONSTRUCTOR BUGACHI S DE RL DE CV|AGUASCALIENTES|Aguascalientes|20270.0|236211.0|Edificación de naves y plantas industriales, excepto la supervisión|2014-12||21.86740374|-102.29437381|11 a 30 personas|11|30|S & M ENTERPRISE SER|VICES SA DE CV||ADOLFO RUIZ CORTINES|3453|DESP 401|SAN JERONIMO LIDICE|LA MAGDALENA CONTRERAS|10200|CALLE 1|CALLE 2|CDMX|S & M ENTERPRISE SERVICES  SA DE CV|S & M ENTERPRISE SERVICES SA DE CV|S & M ENTERPRISE SERVICES 
6425.0|6142281.0|236111.0|110.0|6142281.0|01001236111000942001000000U1|GRUPO REMAGUI CONSTRUCTOR S DE RL DE CV|GRUPO REMAGUI CONSTRUCTOR S DE RL DE CV|AGUASCALIENTES|Aguascalientes|20120.0|236111.0|Edificación de vivienda unifamiliar|2010-07||21.88918421|-102.31631706|51 a 100 personas|51|100|S & M ENTERPRISE SER|VICES SA DE CV||ADOLFO RUIZ CORTINES|3453|DESP 401|SAN JERONIMO LIDICE|LA MAGDALENA CONTRERAS|10200|CALLE 1|CALLE 2|CDMX|S & M ENTERPRISE SERVICES  SA DE CV|S & M ENTERPRISE SERVICES SA DE CV|S & M ENTERPRISE SERVICES 
6425.0|9313210.0|238210.0|111.0|9313210.0|01005237121000021000000000U3|LA LAGUNA RAMONES Y PIPELINES S.A DE C.V||AGUASCALIENTES|Jesús María|20900.0|238210.0|Instalaciones eléctricas en construcciones|2020-11||21.96214569|-102.34439079|0 a 5 personas|0|5|S & M ENTERPRISE SER|VICES SA DE CV||ADOLFO RUIZ CORTINES|3453|DESP 401|SAN JERONIMO LIDICE|LA MAGDALENA CONTRERAS|10200|CALLE 1|CALLE 2|CDMX|S & M ENTERPRISE SERVICES  SA DE CV|S & M ENTERPRISE SERVICES SA DE CV|S & M ENTERPRISE SERVICES 
6425.0|9317117.0|237212.0|112.0|9317117.0|01001237212000781000000000U6|PLANCARTE CONSTRUCCIONES S A DE C V||AGUASCALIENTES|Aguascalientes|20120.0|237212.0|Construcción de obras de urbanización|2020-11||21.92157639|-102.31417634|0 a 5 personas|0|5|S & M ENTERPRISE SER|VICES SA DE CV||ADOLFO RUIZ CORTINES|3453|DESP 401|SAN JERONIMO LIDICE|LA MAGDALENA CONTRERAS|10200|CALLE 1|CALLE 2|CDMX|S & M ENTERPRISE SERVICES  SA DE CV|S & M ENTERPRISE SERVICES SA DE CV|S & M ENTERPRISE SERVICES 
6425.0|9321075.0|236111.0|113.0|9321075.0|01001236111003123000000000U5|RAMIREZ Y FLORES CONTRUCCIONES S.DE R.L DE C.V|RAMIREZ Y FLORES CONSTRUCCIONES S. DE R.L C.V |AGUASCALIENTES|Aguascalientes||236111.0|Edificación de vivienda unifamiliar|2020-11||21.91637553|-102.24054938|11 a 30 personas|11|30|S & M ENTERPRISE SER|VICES SA DE CV||ADOLFO RUIZ CORTINES|3453|DESP 401|SAN JERONIMO LIDICE|LA MAGDALENA CONTRERAS|10200|CALLE 1|CALLE 2|CDMX|S & M ENTERPRISE SERVICES  SA DE CV|S & M ENTERPRISE SERVICES SA DE CV|S & M ENTERPRISE SERVICES 
6425.0|9317119.0|236221.0|114.0|9317119.0|01001236221001551000000000U2|REVIRESCO CONSTRUCCIONES|REVIRESCO CONSTRUCCIONES S DE RL DE CV|AGUASCALIENTES|Aguascalientes|20120.0|236221.0|Edificación de inmuebles comerciales y de servicios, excepto la supervisión|2020-11||21.92463702|-102.30408781|0 a 5 personas|0|5|S & M ENTERPRISE SER|VICES SA DE CV||ADOLFO RUIZ CORTINES|3453|DESP 401|SAN JERONIMO LIDICE|LA MAGDALENA CONTRERAS|10200|CALLE 1|CALLE 2|CDMX|S & M ENTERPRISE SERVICES  SA DE CV|S & M ENTERPRISE SERVICES SA DE CV|S & M ENTERPRISE SERVICES 
6425.0|6879420.0|238290.0|115.0|6879420.0|01001238290000152001000000U7|V & A CONSTRUCCIONES Y PROYECTOS S A DE C V|V&A CONSTRUCCIONES Y PROYECTOS SA DE CV|AGUASCALIENTES|Aguascalientes|20240.0|238290.0|Otras instalaciones y equipamiento en construcciones|2019-04||21.87271325|-102.28836995|0 a 5 personas|0|5|S & M ENTERPRISE SER|VICES SA DE CV||ADOLFO RUIZ CORTINES|3453|DESP 401|SAN JERONIMO LIDICE|LA MAGDALENA CONTRERAS|10200|CALLE 1|CALLE 2|CDMX|S & M ENTERPRISE SERVICES  SA DE CV|S & M ENTERPRISE SERVICES SA DE CV|S & M ENTERPRISE SERVICES 
6425.0|10169.0|312112.0|116.0|10169.0|01001312112000101000000000S9|AGUA ULTRALIGERA|ULTRA LIGERA S DE RL DE CV|AGUASCALIENTES|Aguascalientes|20133.0|312112.0|Purificación y embotellado de agua|2010-07||21.88788286|-102.24945289|0 a 5 personas|0|5|S & M ENTERPRISE SER|VICES SA DE CV||ADOLFO RUIZ CORTINES|3453|DESP 401|SAN JERONIMO LIDICE|LA MAGDALENA CONTRERAS|10200|CALLE 1|CALLE 2|CDMX|S & M ENTERPRISE SERVICES  SA DE CV|S & M ENTERPRISE SERVICES SA DE CV|S & M ENTERPRISE SERVICES 
6425.0|6282301.0|312112.0|117.0|6282301.0|01001312112000861002006096S8|AGUAS AGUASCALIENTES|ENVASADORA DE AGUAS EN MEXICO S DE RL DE CV|AGUASCALIENTES|Aguascalientes|20290.0|312112.0|Purificación y embotellado de agua|2010-07||21.8413813|-102.28339145|101 a 250 personas|101|250|S & M ENTERPRISE SER|VICES SA DE CV||ADOLFO RUIZ CORTINES|3453|DESP 401|SAN JERONIMO LIDICE|LA MAGDALENA CONTRERAS|10200|CALLE 1|CALLE 2|CDMX|S & M ENTERPRISE SERVICES  SA DE CV|S & M ENTERPRISE SERVICES SA DE CV|S & M ENTERPRISE SERVICES 
6425.0|6866620.0|311212.0|118.0|6866620.0|01001311999000121011025357S8|AIS BAKERY|AIS LOGISTICS MEXICO S DE RL DE CV|AGUASCALIENTES|Aguascalientes|20290.0|311212.0|Elaboración de harina de trigo|2019-04||21.79705604|-102.28056777|31 a 50 personas|31|50|S & M ENTERPRISE SER|VICES SA DE CV||ADOLFO RUIZ CORTINES|3453|DESP 401|SAN JERONIMO LIDICE|LA MAGDALENA CONTRERAS|10200|CALLE 1|CALLE 2|CDMX|S & M ENTERPRISE SERVICES  SA DE CV|S & M ENTERPRISE SERVICES SA DE CV|S & M ENTERPRISE SERVICES 
6425.0|6282598.0|312111.0|119.0|6282598.0|01001312111000101000008191S1|BEBIDAS MUNDIALES AGUASCALIENTES|BEBIDAS MUNDIALES S DE RL DE CV|AGUASCALIENTES|Aguascalientes|20110.0|312111.0|Elaboración de refrescos y otras bebidas no alcohólicas|2014-12|WWW.ARCACONTAL.COM|21.93342946|-102.2977554|0 a 5 personas|0|5|S & M ENTERPRISE SER|VICES SA DE CV||ADOLFO RUIZ CORTINES|3453|DESP 401|SAN JERONIMO LIDICE|LA MAGDALENA CONTRERAS|10200|CALLE 1|CALLE 2|CDMX|S & M ENTERPRISE SERVICES  SA DE CV|S & M ENTERPRISE SERVICES SA DE CV|S & M ENTERPRISE SERVICES 
6425.0|6281309.0|312111.0|120.0|6281309.0|01001312111000077000008191S3|BEBIDAS MUNDIALES SUC. 3901 PLANTA AGUASCALIENTES|BEBIDAS MUNDIALES S DE RL DE CV|AGUASCALIENTES|Aguascalientes|20394.0|312111.0|Elaboración de refrescos y otras bebidas no alcohólicas|2014-12||21.75062244|-102.27584337|251 y más personas|251|inf|S & M ENTERPRISE SER|VICES SA DE CV||ADOLFO RUIZ CORTINES|3453|DESP 401|SAN JERONIMO LIDICE|LA MAGDALENA CONTRERAS|10200|CALLE 1|CALLE 2|CDMX|S & M ENTERPRISE SERVICES  SA DE CV|S & M ENTERPRISE SERVICES SA DE CV|S & M ENTERPRISE SERVICES 
6425.0|6280910.0|312111.0|121.0|6280910.0|01001312111000057000008191S5|BEBIDAS MUNDIALES SUC. 3907 PLANTA LAS TROJES|BEBIDAS MUNDIALES S DE RL DE CV|AGUASCALIENTES|Aguascalientes|20110.0|312111.0|Elaboración de refrescos y otras bebidas no alcohólicas|2010-07||21.93789297|-102.29488339|251 y más personas|251|inf|S & M ENTERPRISE SER|VICES SA DE CV||ADOLFO RUIZ CORTINES|3453|DESP 401|SAN JERONIMO LIDICE|LA MAGDALENA CONTRERAS|10200|CALLE 1|CALLE 2|CDMX|S & M ENTERPRISE SERVICES  SA DE CV|S & M ENTERPRISE SERVICES SA DE CV|S & M ENTERPRISE SERVICES 
6425.0|6281876.0|312112.0|122.0|6281876.0|01001312112001077002011308S0|BEPUSA PLANTA AGUASCALIENTES|BEBIDAS PURIFICADAS S DE RL DE CV|AGUASCALIENTES|Aguascalientes|20290.0|312112.0|Purificación y embotellado de agua|2010-07|WWW.GEPP.COM.MX|21.84020354|-102.28039905|101 a 250 personas|101|250|S & M ENTERPRISE SER|VICES SA DE CV||ADOLFO RUIZ CORTINES|3453|DESP 401|SAN JERONIMO LIDICE|LA MAGDALENA CONTRERAS|10200|CALLE 1|CALLE 2|CDMX|S & M ENTERPRISE SERVICES  SA DE CV|S & M ENTERPRISE SERVICES SA DE CV|S & M ENTERPRISE SERVICES 
6425.0|35079.0|314120.0|123.0|35079.0|01001314120001091000000000U2|BLANCOS MOY S||AGUASCALIENTES|Aguascalientes|20040.0|314120.0|Confección de cortinas, blancos y similares|2014-12||21.89056927|-102.30861717|0 a 5 personas|0|5|S & M ENTERPRISE SER|VICES SA DE CV||ADOLFO RUIZ CORTINES|3453|DESP 401|SAN JERONIMO LIDICE|LA MAGDALENA CONTRERAS|10200|CALLE 1|CALLE 2|CDMX|S & M ENTERPRISE SERVICES  SA DE CV|S & M ENTERPRISE SERVICES SA DE CV|S & M ENTERPRISE SERVICES 
6425.0|8879341.0|311812.0|124.0|8879341.0|01001311812006121000038171S7|CEDIS AGUASCALIENTES|GRUPO PAN DE PALA S DE RL DE CV|AGUASCALIENTES|Aguascalientes|20116.0|311812.0|Panificación tradicional|2019-11||21.91681915|-102.29233907|0 a 5 personas|0|5|S & M ENTERPRISE SER|VICES SA DE CV||ADOLFO RUIZ CORTINES|3453|DESP 401|SAN JERONIMO LIDICE|LA MAGDALENA CONTRERAS|10200|CALLE 1|CALLE 2|CDMX|S & M ENTERPRISE SERVICES  SA DE CV|S & M ENTERPRISE SERVICES SA DE CV|S & M ENTERPRISE SERVICES 
6425.0|6281802.0|315229.0|125.0|6281802.0|01001316991000031002000114S1|CENTRO DE DISTRIBUCIÓN|INDUSTRIAS DEL INTERIOR S DE RL DE CV|AGUASCALIENTES|Aguascalientes|20290.0|315229.0|Confección en serie de otra ropa exterior de materiales textiles|2011-03||21.83515865|-102.28145606|51 a 100 personas|51|100|S & M ENTERPRISE SER|VICES SA DE CV||ADOLFO RUIZ CORTINES|3453|DESP 401|SAN JERONIMO LIDICE|LA MAGDALENA CONTRERAS|10200|CALLE 1|CALLE 2|CDMX|S & M ENTERPRISE SERVICES  SA DE CV|S & M ENTERPRISE SERVICES SA DE CV|S & M ENTERPRISE SERVICES 
6425.0|8942.0|311520.0|126.0|8942.0|01001461170003102000000000S3|DANNY YO AGUASCALIENTES S.A DE C.V||AGUASCALIENTES|Aguascalientes|20150.0|311520.0|Elaboración de helados y paletas|2010-07||21.85052803|-102.29261535|6 a 10 personas|6|10|S & M ENTERPRISE SER|VICES SA DE CV||ADOLFO RUIZ CORTINES|3453|DESP 401|SAN JERONIMO LIDICE|LA MAGDALENA CONTRERAS|10200|CALLE 1|CALLE 2|CDMX|S & M ENTERPRISE SERVICES  SA DE CV|S & M ENTERPRISE SERVICES SA DE CV|S & M ENTERPRISE SERVICES 
6425.0|6282184.0|312111.0|127.0|6282184.0|01001312111000011000008191S2|DEPOSITO DE BEBIDAS MUNDIALES|BEBIDAS MUNDIALES S DE RL DE CV|AGUASCALIENTES|Aguascalientes|20135.0|312111.0|Elaboración de refrescos y otras bebidas no alcohólicas|2010-07|WWW.ARCACONTAL.COM|21.91143988|-102.2958963|0 a 5 personas|0|5|S & M ENTERPRISE SER|VICES SA DE CV||ADOLFO RUIZ CORTINES|3453|DESP 401|SAN JERONIMO LIDICE|LA MAGDALENA CONTRERAS|10200|CALLE 1|CALLE 2|CDMX|S & M ENTERPRISE SERVICES  SA DE CV|S & M ENTERPRISE SERVICES SA DE CV|S & M ENTERPRISE SERVICES 
6425.0|6869923.0|312111.0|128.0|6869923.0|01001431211000256011017741S7|DISTRIBUIDORA ARCA CONTINENTAL|DISTRIBUIDORA ARCA CONTINENTAL S DE RL DE CV|AGUASCALIENTES|Aguascalientes|20110.0|312111.0|Elaboración de refrescos y otras bebidas no alcohólicas|2019-04|WWW.ARCACONTAL.COM|21.93863822|-102.29180978|251 y más personas|251|inf|S & M ENTERPRISE SER|VICES SA DE CV||ADOLFO RUIZ CORTINES|3453|DESP 401|SAN JERONIMO LIDICE|LA MAGDALENA CONTRERAS|10200|CALLE 1|CALLE 2|CDMX|S & M ENTERPRISE SERVICES  SA DE CV|S & M ENTERPRISE SERVICES SA DE CV|S & M ENTERPRISE SERVICES 
6425.0|6282330.0|311611.0|129.0|6282330.0|01005431122000016012000179S5|DIVISIÓN COMERCIAL NUTRYPOLLO|AGROINDUSTRIAS QUESADA S DE RL DE CV|AGUASCALIENTES|Jesús María|20355.0|311611.0|Matanza de ganado, aves y otros animales comestibles|2010-07|WWW.NUTRYPOLLO.COM.MX|21.96381049|-102.28268363|11 a 30 personas|11|30|S & M ENTERPRISE SER|VICES SA DE CV||ADOLFO RUIZ CORTINES|3453|DESP 401|SAN JERONIMO LIDICE|LA MAGDALENA CONTRERAS|10200|CALLE 1|CALLE 2|CDMX|S & M ENTERPRISE SERVICES  SA DE CV|S & M ENTERPRISE SERVICES SA DE CV|S & M ENTERPRISE SERVICES 
6425.0|6281391.0|311611.0|130.0|6281391.0|01005311611000025001000179S3|DIVISIÓN RASTRO NUTRYPOLLO|AGROINDUSTRIAS QUESADA S DE RL DE CV|AGUASCALIENTES|Jesús María|20355.0|311611.0|Matanza de ganado, aves y otros animales comestibles|2010-07|WWW.NUTRYPOLLO.COM.MX|21.96385527|-102.2827824|11 a 30 personas|11|30|S & M ENTERPRISE SER|VICES SA DE CV||ADOLFO RUIZ CORTINES|3453|DESP 401|SAN JERONIMO LIDICE|LA MAGDALENA CONTRERAS|10200|CALLE 1|CALLE 2|CDMX|S & M ENTERPRISE SERVICES  SA DE CV|S & M ENTERPRISE SERVICES SA DE CV|S & M ENTERPRISE SERVICES 
6425.0|8901363.0|311110.0|131.0|8901363.0|01005311110000072000000179S8|DIVISIÓN RASTRO NUTRYPOLLO|AGROINDUSTRIAS QUESADA S DE RL DE CV|AGUASCALIENTES|Jesús María|20358.0|311110.0|Elaboración de alimentos para animales|2019-11||21.96476308|-102.28365377|11 a 30 personas|11|30|S & M ENTERPRISE SER|VICES SA DE CV||ADOLFO RUIZ CORTINES|3453|DESP 401|SAN JERONIMO LIDICE|LA MAGDALENA CONTRERAS|10200|CALLE 1|CALLE 2|CDMX|S & M ENTERPRISE SERVICES  SA DE CV|S & M ENTERPRISE SERVICES SA DE CV|S & M ENTERPRISE SERVICES 
6425.0|8624699.0|311513.0|132.0|8624699.0|01001311513000881000000000U6|ELABORACION PRODUCTOS LACTEOS Y CARNICOS|PRODUCTOS AGROECUARIOS CASA VILLALOBOS S DE RL |AGUASCALIENTES|Aguascalientes|20237.0|311513.0|Elaboración de derivados y fermentos lácteos|2019-11||21.86922032|-102.3122175|0 a 5 personas|0|5|S & M ENTERPRISE SER|VICES SA DE CV||ADOLFO RUIZ CORTINES|3453|DESP 401|SAN JERONIMO LIDICE|LA MAGDALENA CONTRERAS|10200|CALLE 1|CALLE 2|CDMX|S & M ENTERPRISE SERVICES  SA DE CV|S & M ENTERPRISE SERVICES SA DE CV|S & M ENTERPRISE SERVICES 
6425.0|9345831.0|312111.0|133.0|9345831.0|01007312111000011000000000U9|EMBOTELLADORA COCA COLA|BEBIDAS MUNDIALES S DE RL DE CV|AGUASCALIENTES|Rincón de Romos||312111.0|Elaboración de refrescos y otras bebidas no alcohólicas|2021-05||22.22772324|-102.32199245|0 a 5 personas|0|5|S & M ENTERPRISE SER|VICES SA DE CV||ADOLFO RUIZ CORTINES|3453|DESP 401|SAN JERONIMO LIDICE|LA MAGDALENA CONTRERAS|10200|CALLE 1|CALLE 2|CDMX|S & M ENTERPRISE SERVICES  SA DE CV|S & M ENTERPRISE SERVICES SA DE CV|S & M ENTERPRISE SERVICES 
6425.0|6282596.0|312111.0|134.0|6282596.0|01001312111000111000008191S0|EMBOTELLADORA DE BEBIDAS MUNDIALES S DE RL DE CV|BEBIDAS MUNDIALES S DE RL DE CV|AGUASCALIENTES|Aguascalientes|20126.0|312111.0|Elaboración de refrescos y otras bebidas no alcohólicas|2014-12|WWW.ARCACONTINENTAL.COM|21.93121174|-102.259629|0 a 5 personas|0|5|S & M ENTERPRISE SER|VICES SA DE CV||ADOLFO RUIZ CORTINES|3453|DESP 401|SAN JERONIMO LIDICE|LA MAGDALENA CONTRERAS|10200|CALLE 1|CALLE 2|CDMX|S & M ENTERPRISE SERVICES  SA DE CV|S & M ENTERPRISE SERVICES SA DE CV|S & M ENTERPRISE SERVICES 
6425.0|23968.0|315229.0|135.0|23968.0|01001315229000291000000015S7|ESTACIONAMIENTO INDUSTRIAS JOBAR|INDUSTRIAS JOBAR S DE RL DE CV|AGUASCALIENTES|Aguascalientes|20240.0|315229.0|Confección en serie de otra ropa exterior de materiales textiles|2010-07||21.87247625|-102.29211226|0 a 5 personas|0|5|S & M ENTERPRISE SER|VICES SA DE CV||ADOLFO RUIZ CORTINES|3453|DESP 401|SAN JERONIMO LIDICE|LA MAGDALENA CONTRERAS|10200|CALLE 1|CALLE 2|CDMX|S & M ENTERPRISE SERVICES  SA DE CV|S & M ENTERPRISE SERVICES SA DE CV|S & M ENTERPRISE SERVICES 
6425.0|984.0|311340.0|136.0|984.0|01003311340000043000000000U7|FABRICA DE DULCES LA FLOR DE CALVILLO|FLOCAL S DE RL DE CV|AGUASCALIENTES|Calvillo|20834.0|311340.0|Elaboración de dulces, chicles y productos de confitería que no sean de chocolate|2011-03||21.88205451|-102.67451938|11 a 30 personas|11|30|S & M ENTERPRISE SER|VICES SA DE CV||ADOLFO RUIZ CORTINES|3453|DESP 401|SAN JERONIMO LIDICE|LA MAGDALENA CONTRERAS|10200|CALLE 1|CALLE 2|CDMX|S & M ENTERPRISE SERVICES  SA DE CV|S & M ENTERPRISE SERVICES SA DE CV|S & M ENTERPRISE SERVICES 
6425.0|8500315.0|316999.0|137.0|8500315.0|01001316999000433000000000S2|FABRICACION DE GUANTES CI REX|CI REX S DE RL DE CV|AGUASCALIENTES|Aguascalientes|20210.0|316999.0|Fabricación de otros productos de cuero, piel y materiales sucedáneos|2019-11||21.86899666|-102.31540651|11 a 30 personas|11|30|S & M ENTERPRISE SER|VICES SA DE CV||ADOLFO RUIZ CORTINES|3453|DESP 401|SAN JERONIMO LIDICE|LA MAGDALENA CONTRERAS|10200|CALLE 1|CALLE 2|CDMX|S & M ENTERPRISE SERVICES  SA DE CV|S & M ENTERPRISE SERVICES SA DE CV|S & M ENTERPRISE SERVICES 
6425.0|6873805.0|311611.0|138.0|6873805.0|01011311611000034001000000U3|GRANJA JESSY|GRANJA JESSY S DE RL DE CV|AGUASCALIENTES|San Francisco de los Romo|20305.0|311611.0|Matanza de ganado, aves y otros animales comestibles|2019-04||22.06471882|-102.2596947|51 a 100 personas|51|100|S & M ENTERPRISE SER|VICES SA DE CV||ADOLFO RUIZ CORTINES|3453|DESP 401|SAN JERONIMO LIDICE|LA MAGDALENA CONTRERAS|10200|CALLE 1|CALLE 2|CDMX|S & M ENTERPRISE SERVICES  SA DE CV|S & M ENTERPRISE SERVICES SA DE CV|S & M ENTERPRISE SERVICES 
6425.0|18656.0|313220.0|139.0|18656.0|01001313220000022001000000U7|HERMANOS AGUILERA S DE RL|HERMANOS AGUILERA S DE RL |AGUASCALIENTES|Aguascalientes|20000.0|313220.0|Fabricación de telas angostas de tejido de trama y pasamanería|2010-07|WWW.HACINTAS.COM|21.88827469|-102.28921365|6 a 10 personas|6|10|S & M ENTERPRISE SER|VICES SA DE CV||ADOLFO RUIZ CORTINES|3453|DESP 401|SAN JERONIMO LIDICE|LA MAGDALENA CONTRERAS|10200|CALLE 1|CALLE 2|CDMX|S & M ENTERPRISE SERVICES  SA DE CV|S & M ENTERPRISE SERVICES SA DE CV|S & M ENTERPRISE SERVICES 
6425.0|6282228.0|315229.0|140.0|6282228.0|01007315229000037000000114S1|INDUSTRIAS DEL INTERIOR S DE RL DE CV  PLANTA 2000|INDUSTRIAS DEL INTERIOR S DE RL DE CV|AGUASCALIENTES|Rincón de Romos|20400.0|315229.0|Confección en serie de otra ropa exterior de materiales textiles|2010-07||22.22366273|-102.30736476|251 y más personas|251|inf|S & M ENTERPRISE SER|VICES SA DE CV||ADOLFO RUIZ CORTINES|3453|DESP 401|SAN JERONIMO LIDICE|LA MAGDALENA CONTRERAS|10200|CALLE 1|CALLE 2|CDMX|S & M ENTERPRISE SERVICES  SA DE CV|S & M ENTERPRISE SERVICES SA DE CV|S & M ENTERPRISE SERVICES 
6425.0|6281349.0|315229.0|141.0|6281349.0|01001315229001567000000114M9|INDUSTRIAS DEL INTERIOR S DE RL DE CV PLANTA GEORGINA|INDUSTRIAS DEL INTERIOR S DE RL DE CV|AGUASCALIENTES|Aguascalientes|20290.0|315229.0|Confección en serie de otra ropa exterior de materiales textiles|2010-07||21.83326015|-102.2809603|251 y más personas|251|inf|S & M ENTERPRISE SER|VICES SA DE CV||ADOLFO RUIZ CORTINES|3453|DESP 401|SAN JERONIMO LIDICE|LA MAGDALENA CONTRERAS|10200|CALLE 1|CALLE 2|CDMX|S & M ENTERPRISE SERVICES  SA DE CV|S & M ENTERPRISE SERVICES SA DE CV|S & M ENTERPRISE SERVICES 
6425.0|6282229.0|315229.0|142.0|6282229.0|01001315229000891000000114S4|INDUSTRIAS DEL INTERIOR S DE RL DE CV PLANTA LAVAMEX|INDUSTRIAS DEL INTERIOR S DE RL DE CV|AGUASCALIENTES|Aguascalientes|20340.0|315229.0|Confección en serie de otra ropa exterior de materiales textiles|2010-07||21.80339685|-102.28400675|251 y más personas|251|inf|S & M ENTERPRISE SER|VICES SA DE CV||ADOLFO RUIZ CORTINES|3453|DESP 401|SAN JERONIMO LIDICE|LA MAGDALENA CONTRERAS|10200|CALLE 1|CALLE 2|CDMX|S & M ENTERPRISE SERVICES  SA DE CV|S & M ENTERPRISE SERVICES SA DE CV|S & M ENTERPRISE SERVICES 
6426.0|6703245.0|621511.0|143.0|6703245.0|14039621511003851000003549S0|170 LABORATORIO DEL CHOPO AV MEXICO|GRUPO DIAGNOSTICO MEDICO PROA SA DE CV|JALISCO|Guadalajara|44690.0|621511.0|Laboratorios médicos y de diagnóstico del sector privado|2016-01|WWW.CHOPO.COM.MX|20.67839274|-103.39757379|0 a 5 personas|0|5|GRUPO DE LABORATORIO|S MEXICO SA DE CV||AV DIVISION DEL NORTE|2806||PARQUE SAN ANDRES|COYOACAN|4040|UNO|DOS|CDMX|GRUPO DE LABORATORIOS MEXICO  SA DE CV|GRUPO DE LABORATORIOS MEXICO SA DE CV|GRUPO DE LABORATORIOS MEXICO 
6426.0|9001521.0|621511.0|144.0|9001521.0|18017621511000731000000000S9|LABORATORIO GRUPO GENOMICA MOLECULAR DE MEXICO|GRUPO GENOMICA MOLECULAR DE MEXICO SA DE CV|NAYARIT|Tepic|63110.0|621511.0|Laboratorios médicos y de diagnóstico del sector privado|2019-11||21.51920628|-104.91767326|0 a 5 personas|0|5|GRUPO DE LABORATORIO|S MEXICO SA DE CV||AV DIVISION DEL NORTE|2806||PARQUE SAN ANDRES|COYOACAN|4040|UNO|DOS|CDMX|GRUPO DE LABORATORIOS MEXICO  SA DE CV|GRUPO DE LABORATORIOS MEXICO SA DE CV|GRUPO DE LABORATORIOS MEXICO 
6426.0|8201963.0|621511.0|145.0|8201963.0|18017621511000682000000000S4|LABORATORIO GRUPO GENOMICA MOLECULAR DE MEXICO|GRUPO GENOMICA MOLECULAR DE MEXICO SA DE CV|NAYARIT|Tepic|63000.0|621511.0|Laboratorios médicos y de diagnóstico del sector privado|2019-11||21.51397846|-104.89474113|6 a 10 personas|6|10|GRUPO DE LABORATORIO|S MEXICO SA DE CV||AV DIVISION DEL NORTE|2806||PARQUE SAN ANDRES|COYOACAN|4040|UNO|DOS|CDMX|GRUPO DE LABORATORIOS MEXICO  SA DE CV|GRUPO DE LABORATORIOS MEXICO SA DE CV|GRUPO DE LABORATORIOS MEXICO 
6426.0|8663329.0|339111.0|146.0|8663329.0|19039339111000581000048908S3|LABORATORIO DENTAL|GRUPO DENTAL MEXICO SA DE CV|NUEVO LEÓN|Monterrey|64000.0|339111.0|Fabricación de equipo no electrónico para uso médico, dental y para laboratorio|2019-11||25.6800218|-100.31969619|0 a 5 personas|0|5|GRUPO DE LABORATORIO|S MEXICO SA DE CV||AV DIVISION DEL NORTE|2806||PARQUE SAN ANDRES|COYOACAN|4040|UNO|DOS|CDMX|GRUPO DE LABORATORIOS MEXICO  SA DE CV|GRUPO DE LABORATORIOS MEXICO SA DE CV|GRUPO DE LABORATORIOS MEXICO 
6426.0|3592045.0|621511.0|147.0|3592045.0|22014621511001342002003549S5|166  LABORATORIO MÉXICO DEL CHOPO 5 DE FEBRERO|GRUPO DIAGNOSTICO MEDICO PROA SA DE CV|QUERÉTARO|Querétaro|76138.0|621511.0|Laboratorios médicos y de diagnóstico del sector privado|2014-12|WWW.CHOPO.COM.MX|20.60744936|-100.41874031|11 a 30 personas|11|30|GRUPO DE LABORATORIO|S MEXICO SA DE CV||AV DIVISION DEL NORTE|2806||PARQUE SAN ANDRES|COYOACAN|4040|UNO|DOS|CDMX|GRUPO DE LABORATORIOS MEXICO  SA DE CV|GRUPO DE LABORATORIOS MEXICO SA DE CV|GRUPO DE LABORATORIOS MEXICO 
6426.0|3836410.0|541380.0|148.0|3836410.0|25006541380000114000038193M2|GRUPO PRIMUS|PRIMUS LABORATORIOS DE MEXICO S DE RL DE CV|SINALOA|Culiacán|80020.0|541380.0|Laboratorios de pruebas|2010-07|WWW.PRIMUSLABS.COM|24.814559|-107.3980573|31 a 50 personas|31|50|GRUPO DE LABORATORIO|S MEXICO SA DE CV||AV DIVISION DEL NORTE|2806||PARQUE SAN ANDRES|COYOACAN|4040|UNO|DOS|CDMX|GRUPO DE LABORATORIOS MEXICO  SA DE CV|GRUPO DE LABORATORIOS MEXICO SA DE CV|GRUPO DE LABORATORIOS MEXICO 
6428.0|888484.0|433420.0|149.0|888484.0|09015433420000341000000000S4|EDITORIAL EPOCA|EDITORIAL EPOCA SA DE CV|CIUDAD DE MÉXICO|Cuauhtémoc|6000.0|433420.0|Comercio al por mayor de libros|2014-12|EDITORIALEPOCA.COM.MX|19.43321338|-99.1331239|0 a 5 personas|0|5|EDITORIAL EPOCA SA C|V||EMPERADORES|185||PORTALES SUR|BENITO JUAREZ|3300|UNO|DOS|CDMX|EDITORIAL EPOCA SA CV|EDITORIAL EPOCA SA CV|EDITORIAL EPOCA 
6428.0|1001607.0|433420.0|150.0|1001607.0|09015433420000361000000000U2|LIBRERÍA ÉPOCA|EDITORIAL EPOCA SA DE CV|CIUDAD DE MÉXICO|Cuauhtémoc|6000.0|433420.0|Comercio al por mayor de libros|2010-07||19.43692348|-99.13792245|0 a 5 personas|0|5|EDITORIAL EPOCA SA C|V||EMPERADORES|185||PORTALES SUR|BENITO JUAREZ|3300|UNO|DOS|CDMX|EDITORIAL EPOCA SA CV|EDITORIAL EPOCA SA CV|EDITORIAL EPOCA 
6430.0|6201994.0|466211.0|151.0|6201994.0|10005466211000543001000000S6|PROVEEDOR DE EQUIPOS DE COMPUTO E IMPRESIONES PRODECO|PRODECO SA DE CV|DURANGO|Durango|34000.0|466211.0|Comercio al por menor de mobiliario, equipo y accesorios de cómputo|2010-07||24.03535715|-104.66158243|0 a 5 personas|0|5|PROVEEDORA DE COMPUT|O#SA DE CV||RETORNO 406 A|24||UNIDAD MODELO|IZTAPALAPA|9089|RETORNO 403|RETONO 405|CDMX|PROVEEDORA DE COMPUTO SA DE CV|PROVEEDORA DE COMPUTO#SA DE CV|PROVEEDORA DE COMPUTO
6430.0|6766695.0|435411.0|152.0|6766695.0|11020463215005562011000000U3|COMERCIALIZADORA DE PRODUCTOS DE COMPUTO NOMBRE PROVEEDOR PRODUCTOS Y SERVICIOS DE MÉXICO|PROVEEDURIA DE  PRODUCTOS Y SERVICIOS DE MÉXICO SA DE CV|GUANAJUATO|León|37290.0|435411.0|Comercio al por mayor de mobiliario, equipo, y accesorios de cómputo|2016-10||21.10865726|-101.62476816|51 a 100 personas|51|100|PROVEEDORA DE COMPUT|O#SA DE CV||RETORNO 406 A|24||UNIDAD MODELO|IZTAPALAPA|9089|RETORNO 403|RETONO 405|CDMX|PROVEEDORA DE COMPUTO SA DE CV|PROVEEDORA DE COMPUTO#SA DE CV|PROVEEDORA DE COMPUTO
6430.0|3768275.0|466211.0|153.0|3768275.0|25001466211000262001000000U5|VENTA DE EQUIPOS DE COMPUTO EPSILION COMPUTACION|PROVEEDORA EPSILON DEL NOROESTE SA DE CV|SINALOA|Ahome|81200.0|466211.0|Comercio al por menor de mobiliario, equipo y accesorios de cómputo|2010-07||25.79174445|-108.99072726|6 a 10 personas|6|10|PROVEEDORA DE COMPUT|O#SA DE CV||RETORNO 406 A|24||UNIDAD MODELO|IZTAPALAPA|9089|RETORNO 403|RETONO 405|CDMX|PROVEEDORA DE COMPUTO SA DE CV|PROVEEDORA DE COMPUTO#SA DE CV|PROVEEDORA DE COMPUTO
6434.0|867721.0|466111.0|154.0|867721.0|09015466111004581000000000U6|TIENDA DE MUEBLES MI QUERIDA JACARANDA|COUZADA SA DE CV|CIUDAD DE MÉXICO|Cuauhtémoc|6760.0|466111.0|Comercio al por menor de muebles para el hogar|2010-07|WWW.MIQUERIDAJACARANDA.COM.MX|19.40075953|-99.16787977|0 a 5 personas|0|5|COUZADA SA DE CV|||CHILPANCINGO|164||ROMA SUR|CUAUHTEMOC|6760|BAJIOS|VIADUCTO PRESIDENTE MIGUE|CDMX|COUZADA  SA DE CV|COUZADA SA DE CV|COUZADA 
6437.0|8564845.0|812110.0|155.0|8564845.0|09010812110014961000000000U2|MAKING BEAUTY|CENTRO DE BELLEZA MAKING BEUTY |CIUDAD DE MÉXICO|Álvaro Obregón|1000.0|812110.0|Salones y clínicas de belleza y peluquerías|2019-11||19.34695054|-99.18867686|0 a 5 personas|0|5|MAKING BEAUTY SA DE|CV||AV JESUS DEL MONTE 39 TORRE B|901|PISO 9|JESUS DEL MONTE|HUIXQUILUCAN|52764|AV PALO SOLO|AUTOPISTA DE MEXICO TOLUC|Estado de Mexico|MAKING BEAUTY  SA DE CV|MAKING BEAUTY SA DECV|MAKING BEAUTY 
6437.0|9291888.0|812110.0|156.0|9291888.0|15037812110006171000000000U3|MAKING BEAUTY SALON|MAKING BEAUTY SA DE CV|MÉXICO|Huixquilucan|52780.0|812110.0|Salones y clínicas de belleza y peluquerías|2020-11|WWW.MAKINGBEAUTY.COM|19.41100901|-99.25085107|0 a 5 personas|0|5|MAKING BEAUTY SA DE|CV||AV JESUS DEL MONTE 39 TORRE B|901|PISO 9|JESUS DEL MONTE|HUIXQUILUCAN|52764|AV PALO SOLO|AUTOPISTA DE MEXICO TOLUC|Estado de Mexico|MAKING BEAUTY  SA DE CV|MAKING BEAUTY SA DECV|MAKING BEAUTY 
6437.0|9169831.0|812110.0|157.0|9169831.0|22014812110039321000000000S5|MAKING BEAUTY LASH & BISOR ESTUDIO|MAKING BEAUTY SA DE CV|QUERÉTARO|Querétaro|76230.0|812110.0|Salones y clínicas de belleza y peluquerías|2019-11|WWW.MAKINGBEAUTY.COM.MX|20.69134045|-100.44444989|0 a 5 personas|0|5|MAKING BEAUTY SA DE|CV||AV JESUS DEL MONTE 39 TORRE B|901|PISO 9|JESUS DEL MONTE|HUIXQUILUCAN|52764|AV PALO SOLO|AUTOPISTA DE MEXICO TOLUC|Estado de Mexico|MAKING BEAUTY  SA DE CV|MAKING BEAUTY SA DECV|MAKING BEAUTY 
6444.0|895420.0|541510.0|158.0|895420.0|09015541510003301000000000U2|GQ DATA NET|GQ DATA NET SA DE CV|CIUDAD DE MÉXICO|Cuauhtémoc|6500.0|541510.0|Servicios de diseño de sistemas de cómputo y servicios relacionados|2014-12|WWW.GQDATANET.COM|19.42660845|-99.16934622|0 a 5 personas|0|5|GQ DATA NET SA DE CV|||PASEO DE LA REFORMA|369|DESP703|CUAUHTEMOC|CUAUHTEMOC|6500|REFORMA|ESTOCOLMO|CDMX|GQ DATA NET  SA DE CV|GQ DATA NET SA DE CV|GQ DATA NET 
6446.0|6155388.0|492110.0|159.0|6155388.0|09015492110000151000000000U2|SERVICIO DE PAQUETERIA MAIL BOXES ETC|MULTISERVICIO TREVI S DE RL DE CV|CIUDAD DE MÉXICO|Cuauhtémoc|6600.0|492110.0|Servicios de mensajería y paquetería foránea|2010-07|WWW.MBE.MX|19.42366655|-99.16605094|0 a 5 personas|0|5|MULTISERVICIO TREVI|S DE RL DE CV||PUEBLA|326|INT 4|ROMA NORTE|CUAUHTEMOC|6700|SALAMANCA|COZUMEL|CDMX|MULTISERVICIO TREVI S DE RL DE CV|MULTISERVICIO TREVIS DE RL DE CV|MULTISERVICIO TREVI
6447.0|6325375.0|541810.0|160.0|6325375.0|09015541810003013000000000U7|DE HARO PUBLICIDAD, S.A. DE C.V.|DE HARO PUBLICIDAD SA DE CV|CIUDAD DE MÉXICO|Cuauhtémoc|6600.0|541810.0|Agencias de publicidad|2010-07|WWW.DEHARO.COM.MX|19.4274602|-99.16557099|31 a 50 personas|31|50|DE HARO PUBLICIDAD S|A DE CV||AV PASEO DE LA REFORMA|300|805|JUAREZ|CUAUHTEMOC|6600|GENOVA|PASEO|CDMX|DE HARO PUBLICIDAD  SA DE CV|DE HARO PUBLICIDAD SA DE CV|DE HARO PUBLICIDAD 
6449.0|8442155.0|541510.0|161.0|8442155.0|09014541510005361000000000U7|COBALT BOND|COBALT BOND SA DE CV|CIUDAD DE MÉXICO|Benito Juárez|3810.0|541510.0|Servicios de diseño de sistemas de cómputo y servicios relacionados|2019-11||19.39467376|-99.17343953|0 a 5 personas|0|5|COBALT BOND SA DE CV|||MONTECITO|38|P 30  1|NAPOLES|BENITO JUAREZ|3810|AV INSUGENTES SUR|DAKOTA|CDMX|COBALT BOND  SA DE CV|COBALT BOND SA DE CV|COBALT BOND 
6458.0|744998.0|326191.0|162.0|744998.0|09007326191000223001000000U8|FABRICA DE PIEZAS DE PLASTICO APISA PLASTICOS|APIZA PLASTICOS DE INGENIERIA SA DE CV|CIUDAD DE MÉXICO|Iztapalapa|9030.0|326191.0|Fabricación de productos de plástico para el hogar con y sin reforzamiento|2010-07||19.38190394|-99.08887088|11 a 30 personas|11|30|APISA PLASTICOS DE I|NGENIERIA# SA DE CV||TAMEMES|21|18|PASEOS DE CHURUBUSCO|IZTAPALAPA|9030|GARATILLO|CENTRAL DE ABASTOS|CDMX|APISA PLASTICOS DE INGENIERIA  SA DE CV|APISA PLASTICOS DE INGENIERIA# SA DE CV|APISA PLASTICOS DE INGENIERIA 
6461.0|820812.0|467113.0|163.0|820812.0|09005467113000121001000000U1|PINTURAS COMEX|PINTURAS CYZ SA DE CV|CIUDAD DE MÉXICO|Gustavo A. Madero|7900.0|467113.0|Comercio al por menor de pintura|2010-07||19.44977768|-99.05780738|6 a 10 personas|6|10|PINTURAS CYZ, SA DE|CV||AV TEXCOCO|136||CUCHILLA DEL TESORO|GUSTAVO A MADERO|7900|ORIENTE 1|AV DEL PARQUE|CDMX|PINTURAS CYZ,  SA DE CV|PINTURAS CYZ, SA DECV|PINTURAS CYZ 
6466.0|9163758.0|238311.0|164.0|9163758.0|04003238311000051000000000U8|INGENIERIA INTEGRAL ESPECIALIZADA EN SERVICIOS SUMINISTROS Y CONSTRUCCIONES AS DE CV||CAMPECHE|Carmen|24190.0|238311.0|Colocación de muros falsos y aislamiento|2019-11|WWW.DOCER.COM.MX|18.64739538|-91.81131726|0 a 5 personas|0|5|SUMINISTROS Y SERVIC|IOS INTEGRALES ESPEC|IALIZADOS SA DE CV|CALLE 70|5||SAN AGUSTIN DEL PALM|CARMEN|24110|NO PROPORCIONADO|NO PROPORCIONADO|Campeche|SUMINISTROS Y SERVICIOS INTEGRALES ESPECIALIZADOS  SA DE CV|SUMINISTROS Y SERVICIOS INTEGRALES ESPECIALIZADOS SA DE CV|SUMINISTROS Y SERVICIOS INTEGRALES ESPECIALIZADOS 
6466.0|9329841.0|237212.0|165.0|9329841.0|04003237212000153000000000S3|INGENIERIA INTEGRAL ESPECIALIZADA EN SERVICIOS SUMINISTROS Y CONSTRUCCIONES SA DE CV|INGENIERIA INTEGRAL ESPECIALIZADA EN SERVICIOS SUMINISTROS Y CONSTRUCCIONES SA DE CV|CAMPECHE|Carmen||237212.0|Construcción de obras de urbanización|2020-11||18.65931987|-91.81766016|11 a 30 personas|11|30|SUMINISTROS Y SERVIC|IOS INTEGRALES ESPEC|IALIZADOS SA DE CV|CALLE 70|5||SAN AGUSTIN DEL PALM|CARMEN|24110|NO PROPORCIONADO|NO PROPORCIONADO|Campeche|SUMINISTROS Y SERVICIOS INTEGRALES ESPECIALIZADOS  SA DE CV|SUMINISTROS Y SERVICIOS INTEGRALES ESPECIALIZADOS SA DE CV|SUMINISTROS Y SERVICIOS INTEGRALES ESPECIALIZADOS 
6466.0|6143037.0|237312.0|166.0|6143037.0|04003236221000103011000000U0|INGENIERIA INTEGRAL ESPECIALIZADA EN SERVICIOS, SUMINISTROS Y CONSTRUCCIONES SA DE CV|INGENIERIA INTEGRAL ESPECIALIZADA EN SERVICIOS SUMINISTROS Y CONSTRUCCIONES SA DE CV|CAMPECHE|Carmen|24150.0|237312.0|Construcción de carreteras, puentes y similares|2010-07||18.65007076|-91.79172719|6 a 10 personas|6|10|SUMINISTROS Y SERVIC|IOS INTEGRALES ESPEC|IALIZADOS SA DE CV|CALLE 70|5||SAN AGUSTIN DEL PALM|CARMEN|24110|NO PROPORCIONADO|NO PROPORCIONADO|Campeche|SUMINISTROS Y SERVICIOS INTEGRALES ESPECIALIZADOS  SA DE CV|SUMINISTROS Y SERVICIOS INTEGRALES ESPECIALIZADOS SA DE CV|SUMINISTROS Y SERVICIOS INTEGRALES ESPECIALIZADOS 
6466.0|8233487.0|541711.0|167.0|8233487.0|04003541711000043000000000S8|SSIE|SUMINISTROS Y SERVICIOS INTEGRALES ESPECIALIZADOS SA DE CV|CAMPECHE|Carmen|24118.0|541711.0|Servicios de investigación científica y desarrollo en ciencias naturales y exactas, ingeniería, y ciencias de la vida, prestados por el sector privado|2019-11|WWW.GRUPO-SSE.COM|18.65596061|-91.81901771|11 a 30 personas|11|30|SUMINISTROS Y SERVIC|IOS INTEGRALES ESPEC|IALIZADOS SA DE CV|CALLE 70|5||SAN AGUSTIN DEL PALM|CARMEN|24110|NO PROPORCIONADO|NO PROPORCIONADO|Campeche|SUMINISTROS Y SERVICIOS INTEGRALES ESPECIALIZADOS  SA DE CV|SUMINISTROS Y SERVICIOS INTEGRALES ESPECIALIZADOS SA DE CV|SUMINISTROS Y SERVICIOS INTEGRALES ESPECIALIZADOS 
6466.0|697013.0|541330.0|168.0|697013.0|09017541330000074001000000U7|SUMINISTROS Y SERVICIOS INTEGRALES ESPECIALIZADOS|SUMINISTROS Y SERVICIOS INTEGRALES ESPECIALIZADOS SA DE CV|CIUDAD DE MÉXICO|Venustiano Carranza|15700.0|541330.0|Servicios de ingeniería|2014-12|WWW.GRUPO-SSE.COM|19.42281457|-99.09056991|11 a 30 personas|11|30|SUMINISTROS Y SERVIC|IOS INTEGRALES ESPEC|IALIZADOS SA DE CV|CALLE 70|5||SAN AGUSTIN DEL PALM|CARMEN|24110|NO PROPORCIONADO|NO PROPORCIONADO|Campeche|SUMINISTROS Y SERVICIOS INTEGRALES ESPECIALIZADOS  SA DE CV|SUMINISTROS Y SERVICIOS INTEGRALES ESPECIALIZADOS SA DE CV|SUMINISTROS Y SERVICIOS INTEGRALES ESPECIALIZADOS 
6467.0|658813.0|468211.0|169.0|658813.0|09006468211001541000053200M8|AUDIO SHOT|AUDIO SHOT S DE RL DE CV|CIUDAD DE MÉXICO|Iztacalco|8840.0|468211.0|Comercio al por menor de partes y refacciones nuevas para automóviles, camionetas y camiones|2012-06||19.37732243|-99.13170753|0 a 5 personas|0|5|AUDIO SHOT S DE RL D|E CV||FERNANDO IGLESIAS CALDERON|119||JARDIN BALBUENA|VENUSTIANO CARRANZA|15900|LUIS DE LA ROSA|AV DEL TALLER|CDMX|AUDIO SHOT S DE RL DE CV|AUDIO SHOT S DE RL DE CV|AUDIO SHOT 
6467.0|758219.0|468211.0|170.0|758219.0|09017468211002281001053200S7|AUTOBOUTIQUE CAR FIX JAGUAR|AUDIO SHOT SA DE CV|CIUDAD DE MÉXICO|Venustiano Carranza|15900.0|468211.0|Comercio al por menor de partes y refacciones nuevas para automóviles, camionetas y camiones|2010-07||19.41535309|-99.1040445|6 a 10 personas|6|10|AUDIO SHOT S DE RL D|E CV||FERNANDO IGLESIAS CALDERON|119||JARDIN BALBUENA|VENUSTIANO CARRANZA|15900|LUIS DE LA ROSA|AV DEL TALLER|CDMX|AUDIO SHOT S DE RL DE CV|AUDIO SHOT S DE RL DE CV|AUDIO SHOT 
6467.0|748509.0|811199.0|171.0|748509.0|09017811199000711000053200S6|AUDIO SHOT S. DE R.L DE C.V||CIUDAD DE MÉXICO|Venustiano Carranza|15000.0|811199.0|Otros servicios de reparación y mantenimiento de automóviles y camiones|2012-06||19.40859321|-99.08980805|0 a 5 personas|0|5|AUDIO SHOT S DE RL D|E CV||FERNANDO IGLESIAS CALDERON|119||JARDIN BALBUENA|VENUSTIANO CARRANZA|15900|LUIS DE LA ROSA|AV DEL TALLER|CDMX|AUDIO SHOT S DE RL DE CV|AUDIO SHOT S DE RL DE CV|AUDIO SHOT 
6467.0|748465.0|811199.0|172.0|748465.0|09017811199000701000053200S7|AUTO BOUTIQUE JAGUAR|AUDIO SHOT SC DE RL DE CV|CIUDAD DE MÉXICO|Venustiano Carranza|15000.0|811199.0|Otros servicios de reparación y mantenimiento de automóviles y camiones|2012-06||19.41167989|-99.08768426|0 a 5 personas|0|5|AUDIO SHOT S DE RL D|E CV||FERNANDO IGLESIAS CALDERON|119||JARDIN BALBUENA|VENUSTIANO CARRANZA|15900|LUIS DE LA ROSA|AV DEL TALLER|CDMX|AUDIO SHOT S DE RL DE CV|AUDIO SHOT S DE RL DE CV|AUDIO SHOT 
6467.0|755494.0|811199.0|173.0|755494.0|09017811199000601000053200S9|OTROS SERVICIOS DE REPARACIÓN Y MANTENIMIENTO DE AUTOMÓVILES Y CAMIONES|AUDIO SHOT |CIUDAD DE MÉXICO|Venustiano Carranza|15900.0|811199.0|Otros servicios de reparación y mantenimiento de automóviles y camiones|2010-07|WWW.AUDIOSHOT.COM.MX|19.41220067|-99.10659665|0 a 5 personas|0|5|AUDIO SHOT S DE RL D|E CV||FERNANDO IGLESIAS CALDERON|119||JARDIN BALBUENA|VENUSTIANO CARRANZA|15900|LUIS DE LA ROSA|AV DEL TALLER|CDMX|AUDIO SHOT S DE RL DE CV|AUDIO SHOT S DE RL DE CV|AUDIO SHOT 
6467.0|748486.0|811199.0|174.0|748486.0|09017811199000691000000000U0|TUNNING SHOP|AUDIO SHOT |CIUDAD DE MÉXICO|Venustiano Carranza|15000.0|811199.0|Otros servicios de reparación y mantenimiento de automóviles y camiones|2010-07||19.41116182|-99.08819406|0 a 5 personas|0|5|AUDIO SHOT S DE RL D|E CV||FERNANDO IGLESIAS CALDERON|119||JARDIN BALBUENA|VENUSTIANO CARRANZA|15900|LUIS DE LA ROSA|AV DEL TALLER|CDMX|AUDIO SHOT S DE RL DE CV|AUDIO SHOT S DE RL DE CV|AUDIO SHOT 
6469.0|201434.0|468213.0|175.0|201434.0|04009468213000031000000000U6|DISTRIBUIDORA RJOLDI|DISTRIBUIDORA RJOLDI SA DE CV|CAMPECHE|Escárcega|24350.0|468213.0|Comercio al por menor de llantas y cámaras para automóviles, camionetas y camiones|2010-07||18.60639557|-90.73941239|0 a 5 personas|0|5|DISTRIBUIDORA RJOLDI|SA DE CV||OTE 180|376 A||MOCTEZUMA 2A SECC|VENUSTIANO CARRANZA|15530|||CDMX|DISTRIBUIDORA RJOLDI SA DE CV|DISTRIBUIDORA RJOLDISA DE CV|DISTRIBUIDORA RJOLDI
6469.0|3616353.0|468213.0|176.0|3616353.0|23004468213000041000000000S3|DISTRIBUIDORA RJOLDI|DISTRIBUIDORA RJOLDI SA DE CV|QUINTANA ROO|Othón P. Blanco|77010.0|468213.0|Comercio al por menor de llantas y cámaras para automóviles, camionetas y camiones|2010-07||18.51605566|-88.28783449|0 a 5 personas|0|5|DISTRIBUIDORA RJOLDI|SA DE CV||OTE 180|376 A||MOCTEZUMA 2A SECC|VENUSTIANO CARRANZA|15530|||CDMX|DISTRIBUIDORA RJOLDI SA DE CV|DISTRIBUIDORA RJOLDISA DE CV|DISTRIBUIDORA RJOLDI
6472.0|6865534.0|431121.0|177.0|6865534.0|09006431121000093001000000U6|CARNES FINAS LA UNION|CARNES FINAS LA UNION SA DE CV|CIUDAD DE MÉXICO|Iztacalco|8500.0|431121.0|Comercio al por mayor de carnes rojas|2019-04||19.40132129|-99.06643721|11 a 30 personas|11|30|CARNES FINAS LA UNIO|N SA DE CV||ORIENTE 249|34||AGRICOLA ORIENTAL|IZTACALCO|8500|ZARAGOZA|SUR 8|CDMX|CARNES FINAS LA UNION  SA DE CV|CARNES FINAS LA UNION SA DE CV|CARNES FINAS LA UNION 
6472.0|6718332.0|461110.0|178.0|6718332.0|19046461110018351000000000U8|CARNES FINAS UNIÓN|REPRESENTACIONES Y DISTRIBUCIONES UNION SA DE CV|NUEVO LEÓN|San Nicolás de los Garza|66473.0|461110.0|Comercio al por menor en tiendas de abarrotes, ultramarinos y misceláneas|2016-01||25.71579116|-100.22375887|0 a 5 personas|0|5|CARNES FINAS LA UNIO|N SA DE CV||ORIENTE 249|34||AGRICOLA ORIENTAL|IZTACALCO|8500|ZARAGOZA|SUR 8|CDMX|CARNES FINAS LA UNION  SA DE CV|CARNES FINAS LA UNION SA DE CV|CARNES FINAS LA UNION 
6472.0|3032774.0|461121.0|179.0|3032774.0|19046461121001482001000000U7|CARNES FINAS UNION||NUEVO LEÓN|San Nicolás de los Garza|66473.0|461121.0|Comercio al por menor de carnes rojas|2010-07||25.71565312|-100.23513754|0 a 5 personas|0|5|CARNES FINAS LA UNIO|N SA DE CV||ORIENTE 249|34||AGRICOLA ORIENTAL|IZTACALCO|8500|ZARAGOZA|SUR 8|CDMX|CARNES FINAS LA UNION  SA DE CV|CARNES FINAS LA UNION SA DE CV|CARNES FINAS LA UNION 
6474.0|3501547.0|327910.0|180.0|3501547.0|21153434229000011000000000U0|DIAMANT AGUILA MEXICANA||PUEBLA|Tecali de Herrera|75240.0|327910.0|Fabricación de productos abrasivos|2010-07||18.90105676|-97.96643113|6 a 10 personas|6|10|DIAMANT AGUILA MEXIC|ANA#SA DE CV||VALLADOLID 40|CON COM|B PB|ROMA SUR|CUAUHTEMOC|6700|PUEBLA|SINALOA|CDMX|DIAMANT AGUILA MEXICANA SA DE CV|DIAMANT AGUILA MEXICANA#SA DE CV|DIAMANT AGUILA MEXICANA
6474.0|8664423.0|435220.0|181.0|8664423.0|21169435220000021000000000S3|TIENDA DE VENTA DE ACCESORIOS PARA MAQUINAS CORTADORAS DIAMANT AGUILA MEXICANA|DIAMAN AGUILA MEXICANA SA DE CV|PUEBLA|Tepexi de Rodríguez|74690.0|435220.0|Comercio al por mayor de maquinaria y equipo para la industria manufacturera|2019-11||18.57715915|-97.92660035|0 a 5 personas|0|5|DIAMANT AGUILA MEXIC|ANA#SA DE CV||VALLADOLID 40|CON COM|B PB|ROMA SUR|CUAUHTEMOC|6700|PUEBLA|SINALOA|CDMX|DIAMANT AGUILA MEXICANA SA DE CV|DIAMANT AGUILA MEXICANA#SA DE CV|DIAMANT AGUILA MEXICANA
6476.0|739967.0|463214.0|182.0|739967.0|09005463310001581000000000S1|MIGUELITO LINDAVISTA|MIGUELITO LINDAVISTA SA DE CV|CIUDAD DE MÉXICO|Gustavo A. Madero|7300.0|463214.0|Comercio al por menor de disfraces, vestimenta regional y vestidos de novia|2010-07|WWW.MIGUELITO.COM.MX|19.49174141|-99.13828832|0 a 5 personas|0|5|MIGUELITO LINDAVISTA|SA DE CV||AV MONTEVIDEO|464||LINDAVISTA|GUSTAVO A MADERO|7300|ESQ ETEN|RECIFE|CDMX|MIGUELITO LINDAVISTA SA DE CV|MIGUELITO LINDAVISTASA DE CV|MIGUELITO LINDAVISTA
6476.0|2208771.0|463211.0|183.0|2208771.0|15057463211007861000000000U4|MIGUELITO|MIGUELITO LINDAVISTA SA DE CV|MÉXICO|Naucalpan de Juárez|53100.0|463211.0|Comercio al por menor de ropa, excepto de bebé y lencería|2014-12|MIGUELITO.MX|19.50935467|-99.23703116|0 a 5 personas|0|5|MIGUELITO LINDAVISTA|SA DE CV||AV MONTEVIDEO|464||LINDAVISTA|GUSTAVO A MADERO|7300|ESQ ETEN|RECIFE|CDMX|MIGUELITO LINDAVISTA SA DE CV|MIGUELITO LINDAVISTASA DE CV|MIGUELITO LINDAVISTA
6478.0|6308267.0|315222.0|184.0|6308267.0|09007315222000095000000000U6|RUPIA|RUPIA SA DE CV|CIUDAD DE MÉXICO|Iztapalapa|9310.0|315222.0|Confección en serie de camisas|2010-07||19.37491068|-99.06751643|51 a 100 personas|51|100|RUPIA SA DE CV|||11 DE ENERO DE 1861|90||LEYES DE REFORMA|IZTAPALAPA|9310|||CDMX|RUPIA  SA DE CV|RUPIA SA DE CV|RUPIA 
6479.0|9319212.0|236112.0|185.0|9319212.0|14008236112000031000000000U3|CASAS PRACTICAS EDIFICACIONES PREFABRICADAS||JALISCO|Arandas|47180.0|236112.0|Edificación de vivienda multifamiliar|2020-11|WWW.CASASPRACTICAS.COM|20.70642776|-102.37441757|0 a 5 personas|0|5|CASA PRACTICA SA DE|CV||VAINILLA|186||GRANJAS MEXICO|IZTACALCO|8400|||CDMX|CASA PRACTICA  SA DE CV|CASA PRACTICA SA DECV|CASA PRACTICA 
6481.0|719714.0|461130.0|186.0|719714.0|09007461130044053001000000U0|BODEGA DE FRUTAS YUDIAN TELOXA SA DE CV||CIUDAD DE MÉXICO|Iztapalapa|9410.0|461130.0|Comercio al por menor de frutas y verduras frescas|2014-12||19.37365784|-99.0947534|11 a 30 personas|11|30|YUDIAN TELOXA S.A. D|E C#V#||ZNA V SECT 7 NAVE 3 BODEGA 22|U 135||CENTRAL DE ABASTO|IZTAPALAPA|9040|PASILLO 3|PASILLO 4|CDMX|YUDIAN TELOXA SA DE CV|YUDIAN TELOXA S.A. DE C#V#|YUDIAN TELOXA 
6482.0|1045121.0|323119.0|187.0|1045121.0|09011323119000563000000000U3|VISION GRAFICA Y TERMOFORMADO|VISION GRAFICA Y TERMOFORMADO |CIUDAD DE MÉXICO|Tláhuac|13200.0|323119.0|Impresión de formas continuas y otros impresos|2010-07|WWW.VISIONGRAFICA.COM.MX|19.29657675|-99.04290457|11 a 30 personas|11|30|VISION GRAFICA Y TER|MOFORMADO SA DE CV||CDA GUILLERMO PRIETO|21||MIGUEL HIDALGO|TLAHUAC|13200|IGNACIO MANUEL ALTAMIRANO|FCO LANDINO|CDMX|VISION GRAFICA Y TERMOFORMADO  SA DE CV|VISION GRAFICA Y TERMOFORMADO SA DE CV|VISION GRAFICA Y TERMOFORMADO 
6483.0|6730377.0|434225.0|188.0|6730377.0|15121434225000333000000000U1|ROMIDA AUTOMATION SA DE CV|ROMIDA AUTOMATION SA DE CV|MÉXICO|Cuautitlán Izcalli|54712.0|434225.0|Comercio al por mayor de equipo y material eléctrico|2016-10||19.6839844|-99.18953163|11 a 30 personas|11|30|ROMIDA AUTOMATION SA|DE CV||CARRETEROS|MZ4 LT27||FRACC IND XHALA|CUAUTITLAN IZCALLI|54750|CALLE|CALLE|Estado de Mexico|ROMIDA AUTOMATION SA DE CV|ROMIDA AUTOMATION SADE CV|ROMIDA AUTOMATION 
6484.0|683722.0|811119.0|189.0|683722.0|09002811119001173000000000U8|CLUTCH Y FRENOS SALCEDO|COMERCIALIZADORA RIVEDEP SA DE CV|CIUDAD DE MÉXICO|Azcapotzalco|2050.0|811119.0|Otras reparaciones mecánicas de automóviles y camiones|2014-12|WWW.COMERCIALIZADORARIVEDEP.COM|19.47863079|-99.18415637|11 a 30 personas|11|30|COMERCIALIZADORA RIV|EDEP SA DE CV||AV 22 DE FEBRERO|297||SANTA MARIA MANINALCO|AZCAPOTZALCO|2050|AVE 22 DE FEBRERO|CUATOTONQUE|CDMX|COMERCIALIZADORA RIVEDEP  SA DE CV|COMERCIALIZADORA RIVEDEP SA DE CV|COMERCIALIZADORA RIVEDEP 
6490.0|6733111.0|541810.0|190.0|6733111.0|09016541810003593001000000U6|ALVARADO MOLINA||CIUDAD DE MÉXICO|Miguel Hidalgo|11950.0|541810.0|Agencias de publicidad|2016-10||19.39320315|-99.23939191|31 a 50 personas|31|50|ALVARADO MOLINA SA D|E CV||SANTA FE|170|5 2 18|SANTA FE|ALVARO OBREGON|1210|CALLE 2|AV JAVIER BARROS SIERRA|CDMX|ALVARADO MOLINA  SA DE CV|ALVARADO MOLINA SA DE CV|ALVARADO MOLINA 
6493.0|8536035.0|311812.0|191.0|8536035.0|09003311812002994000019005S9|EL BOLLO CAFETALES|DISTRIBUIDORA EL BOLLO CAFETALES SA DE CV|CIUDAD DE MÉXICO|Coyoacán|4970.0|311812.0|Panificación tradicional|2019-11||19.30442091|-99.1126663|31 a 50 personas|31|50|DISTRIBUIDORA EL BOL|LO CAFETALES SA DE C|V|AVENIDA CAFETALES|1761||HACIENDA DE COYOACAN|COYOACAN|4970|CALZ DEL HUESO|AV VISTA HERMOSA|CDMX|DISTRIBUIDORA EL BOLLO CAFETALES  SA DE CV|DISTRIBUIDORA EL BOLLO CAFETALES SA DE CV|DISTRIBUIDORA EL BOLLO CAFETALES 
6493.0|6768939.0|311812.0|192.0|6768939.0|09013311812002202001019005S6|EL BOLLO PANIFICADORA|DISTRIBUIDORA EL BOLLO CAFETALES SA DE CV|CIUDAD DE MÉXICO|Xochimilco|16010.0|311812.0|Panificación tradicional|2016-10||19.27747491|-99.11832442|11 a 30 personas|11|30|DISTRIBUIDORA EL BOL|LO CAFETALES SA DE C|V|AVENIDA CAFETALES|1761||HACIENDA DE COYOACAN|COYOACAN|4970|CALZ DEL HUESO|AV VISTA HERMOSA|CDMX|DISTRIBUIDORA EL BOLLO CAFETALES  SA DE CV|DISTRIBUIDORA EL BOLLO CAFETALES SA DE CV|DISTRIBUIDORA EL BOLLO CAFETALES 
6493.0|862487.0|311812.0|193.0|862487.0|09012311812001613001019005S7|EL BOLLO PANIFICADORA|DISTRIBUIDORA EL BOLLO CAFETALES SA DE CV|CIUDAD DE MÉXICO|Tlalpan|14390.0|311812.0|Panificación tradicional|2010-07||19.28964518|-99.12158477|31 a 50 personas|31|50|DISTRIBUIDORA EL BOL|LO CAFETALES SA DE C|V|AVENIDA CAFETALES|1761||HACIENDA DE COYOACAN|COYOACAN|4970|CALZ DEL HUESO|AV VISTA HERMOSA|CDMX|DISTRIBUIDORA EL BOLLO CAFETALES  SA DE CV|DISTRIBUIDORA EL BOLLO CAFETALES SA DE CV|DISTRIBUIDORA EL BOLLO CAFETALES 
6493.0|910102.0|311812.0|194.0|910102.0|09003311812001111001019005M3|EL BOLLO PANIFICADORA|DISTRIBUIDORA EL BOLLO CAFETALES SA DE CV|CIUDAD DE MÉXICO|Coyoacán|14390.0|311812.0|Panificación tradicional|2014-12||19.30570802|-99.16936897|31 a 50 personas|31|50|DISTRIBUIDORA EL BOL|LO CAFETALES SA DE C|V|AVENIDA CAFETALES|1761||HACIENDA DE COYOACAN|COYOACAN|4970|CALZ DEL HUESO|AV VISTA HERMOSA|CDMX|DISTRIBUIDORA EL BOLLO CAFETALES  SA DE CV|DISTRIBUIDORA EL BOLLO CAFETALES SA DE CV|DISTRIBUIDORA EL BOLLO CAFETALES 
6494.0|1010044.0|464111.0|195.0|1010044.0|09012464111003372001000000S0|FARMACIA UNION ARENAL|GRUPO FARMACEUTICO CAMPRISS SA DE CV|CIUDAD DE MÉXICO|Tlalpan|14608.0|464111.0|Farmacias sin minisúper|2010-07||19.28173584|-99.14319534|11 a 30 personas|11|30|GRUPO FARMACEUTICO C|AMPRISS SA DE CV||EL ARENAL|575|C D E|VALLE ESCONDIDO|XOCHIMILCO|16020|EMILIANO ZAPATAS|LA JOYAS|CDMX|GRUPO FARMACEUTICO CAMPRISS  SA DE CV|GRUPO FARMACEUTICO CAMPRISS SA DE CV|GRUPO FARMACEUTICO CAMPRISS 
6494.0|1047432.0|464111.0|196.0|1047432.0|09015464111003321001000000U0|FARMACIAS MULTIGENERICOS|GRUPO FARMACEUTICO CAMPRISS |CIUDAD DE MÉXICO|Cuauhtémoc|6200.0|464111.0|Farmacias sin minisúper|2014-12||19.4408799|-99.12502483|11 a 30 personas|11|30|GRUPO FARMACEUTICO C|AMPRISS SA DE CV||EL ARENAL|575|C D E|VALLE ESCONDIDO|XOCHIMILCO|16020|EMILIANO ZAPATAS|LA JOYAS|CDMX|GRUPO FARMACEUTICO CAMPRISS  SA DE CV|GRUPO FARMACEUTICO CAMPRISS SA DE CV|GRUPO FARMACEUTICO CAMPRISS 
6497.0|871916.0|435313.0|197.0|871916.0|09012435313000172001000000U5|INDUSTRIAS BIOSCMIC|INDUSTRIAS BIOSCMIC SA DE CV|CIUDAD DE MÉXICO|Tlalpan|14387.0|435313.0|Comercio al por mayor de mobiliario, equipo e instrumental médico y de laboratorio|2011-03||19.28834603|-99.12863627|0 a 5 personas|0|5|INDUSTRIAS BIOSCMIC|SA DE CV||DIVISION DEL NORTE 5167|PISO 2|DEPTO 4|EX HACIENDA SAN JUAN|TLALPAN|14387|BETANCOURTSLS|COLEGIO DE LA ENSE#ANZA|CDMX|INDUSTRIAS BIOSCMIC  SA DE CV|INDUSTRIAS BIOSCMICSA DE CV|INDUSTRIAS BIOSCMIC
6498.0|2069850.0|321910.0|198.0|2069850.0|15121321210000012001000000U9|TRIPLAY Y CHAPAA CUATITLAN|TRIPLAY Y CHAPAS CUAUTITLAN SA DE CV|MÉXICO|Cuautitlán Izcalli|54730.0|321910.0|Fabricación de productos de madera para la construcción|2010-07||19.66803926|-99.1949957|6 a 10 personas|6|10|TRIPLAY Y CHAPAS CUA|UTITLAN  SA DE CV||CALZADA DE GUADALUPE|352||EL CERRITO|CUAUTITLAN|54879|AV GUILLERMO GONZALEZ CAM|DELFIN|Estado de Mexico|TRIPLAY Y CHAPAS CUAUTITLAN  SA DE CV|TRIPLAY Y CHAPAS CUAUTITLAN  SA DE CV|TRIPLAY Y CHAPAS CUAUTITLAN  
6510.0|8768117.0|522452.0|199.0|8768117.0|24028522452001301000000000S6|CASA DE EMPEÑO RESPUESTA RAPIDA|GRUPO COMERCIAL CEA CAPITAL SA DE CV|SAN LUIS POTOSÍ|San Luis Potosí|78110.0|522452.0|Casas de empeño|2019-11|WWW.RESPUESTARAPIDA.COM|22.18648103|-100.99648309|0 a 5 personas|0|5|GRUPO RESPUESTA SA D|E CV||MAR EGEO|226||POPOTLA|MIGUEL HIDALGO|11400|DR ATLL|ENRIQUE MARTINEZ|CDMX|GRUPO RESPUESTA  SA DE CV|GRUPO RESPUESTA SA DE CV|GRUPO RESPUESTA 
6511.0|6305728.0|466212.0|200.0|6305728.0|09002466212001043001002718M4|ALIANZA COMERCIAL CELULAR,S.A.DE C.V.|ALIANZA COMERCIAL CELULAR SA DE CV|CIUDAD DE MÉXICO|Azcapotzalco|2070.0|466212.0|Comercio al por menor de teléfonos y otros aparatos de comunicación|2013-07|WWW.ALICOM.MX|19.46687979|-99.18663185|0 a 5 personas|0|5|ALIANZA COMERCIAL CE|LULAR SA DE CV||FLORESTA|106|B|CLAVERIA|AZCAPOTZALCO|2080|EGIPTO|RIO NILO|CDMX|ALIANZA COMERCIAL CELULAR  SA DE CV|ALIANZA COMERCIAL CELULAR SA DE CV|ALIANZA COMERCIAL CELULAR 
6511.0|6759886.0|466212.0|201.0|6759886.0|09002466212001581000002718S3|ALIANZA COMERCIAL CELULAR,S.A.DE C.V.|ALIANZA COMERCIAL CELULAR SA DE CV|CIUDAD DE MÉXICO|Azcapotzalco|2070.0|466212.0|Comercio al por menor de teléfonos y otros aparatos de comunicación|2016-10|WWW.ALICOM.MX|19.47389357|-99.1893472|0 a 5 personas|0|5|ALIANZA COMERCIAL CE|LULAR SA DE CV||FLORESTA|106|B|CLAVERIA|AZCAPOTZALCO|2080|EGIPTO|RIO NILO|CDMX|ALIANZA COMERCIAL CELULAR  SA DE CV|ALIANZA COMERCIAL CELULAR SA DE CV|ALIANZA COMERCIAL CELULAR 
6511.0|2501392.0|466212.0|202.0|2501392.0|15106466212004561000002718S3|ALIANZA COMERCIAL CELULAR S.A. DE C.V.|ALIANZA COMERCIAL CELULAR SA DE CV|MÉXICO|Toluca|50090.0|466212.0|Comercio al por menor de teléfonos y otros aparatos de comunicación|2010-07||19.28777988|-99.65278664|0 a 5 personas|0|5|ALIANZA COMERCIAL CE|LULAR SA DE CV||FLORESTA|106|B|CLAVERIA|AZCAPOTZALCO|2080|EGIPTO|RIO NILO|CDMX|ALIANZA COMERCIAL CELULAR  SA DE CV|ALIANZA COMERCIAL CELULAR SA DE CV|ALIANZA COMERCIAL CELULAR 
6511.0|6353540.0|466212.0|203.0|6353540.0|15106466212002901000002718S3|ALIANZA COMERCIAL CELULAR SA DE CV|ALIANZA COMERCIAL CELULAR SA DE CV|MÉXICO|Toluca|50000.0|466212.0|Comercio al por menor de teléfonos y otros aparatos de comunicación|2010-07|WWW.ALICOM.MX|19.28723923|-99.65421816|0 a 5 personas|0|5|ALIANZA COMERCIAL CE|LULAR SA DE CV||FLORESTA|106|B|CLAVERIA|AZCAPOTZALCO|2080|EGIPTO|RIO NILO|CDMX|ALIANZA COMERCIAL CELULAR  SA DE CV|ALIANZA COMERCIAL CELULAR SA DE CV|ALIANZA COMERCIAL CELULAR 
6511.0|6791384.0|466212.0|204.0|6791384.0|15106466212004801000002718S3|ALIANZA COMERCIAL CELULAR SA DE CV|ALIANZA COMERCIAL CELULAR SA DE CV|MÉXICO|Toluca|50150.0|466212.0|Comercio al por menor de teléfonos y otros aparatos de comunicación|2017-03||19.28425766|-99.65833041|0 a 5 personas|0|5|ALIANZA COMERCIAL CE|LULAR SA DE CV||FLORESTA|106|B|CLAVERIA|AZCAPOTZALCO|2080|EGIPTO|RIO NILO|CDMX|ALIANZA COMERCIAL CELULAR  SA DE CV|ALIANZA COMERCIAL CELULAR SA DE CV|ALIANZA COMERCIAL CELULAR 
6511.0|2040184.0|466212.0|205.0|2040184.0|15057466212001041000002718S4|ALIANZA COMERCIAL CELULAR SA DE CV|ALIANZA COMERCIAL CELULAR SA DE CV|MÉXICO|Naucalpan de Juárez|53124.0|466212.0|Comercio al por menor de teléfonos y otros aparatos de comunicación|2014-12||19.51610186|-99.26648477|0 a 5 personas|0|5|ALIANZA COMERCIAL CE|LULAR SA DE CV||FLORESTA|106|B|CLAVERIA|AZCAPOTZALCO|2080|EGIPTO|RIO NILO|CDMX|ALIANZA COMERCIAL CELULAR  SA DE CV|ALIANZA COMERCIAL CELULAR SA DE CV|ALIANZA COMERCIAL CELULAR 
6511.0|6353541.0|466212.0|206.0|6353541.0|15106466212002912001002718S0|ALIANZA COMERCIAL CELULAR,S.A.DE C.V|ALIANZA COMERCIAL CELULAR SA DE CV|MÉXICO|Toluca|50000.0|466212.0|Comercio al por menor de teléfonos y otros aparatos de comunicación|2010-07|WWW.ALICOM.MX|19.28724095|-99.65421824|0 a 5 personas|0|5|ALIANZA COMERCIAL CE|LULAR SA DE CV||FLORESTA|106|B|CLAVERIA|AZCAPOTZALCO|2080|EGIPTO|RIO NILO|CDMX|ALIANZA COMERCIAL CELULAR  SA DE CV|ALIANZA COMERCIAL CELULAR SA DE CV|ALIANZA COMERCIAL CELULAR 
6511.0|3593976.0|466212.0|207.0|3593976.0|22014466212003281000002718S6|ALICOM|ALIANZA COMERCIAL CELULAR SA DE CV|QUERÉTARO|Querétaro|76000.0|466212.0|Comercio al por menor de teléfonos y otros aparatos de comunicación|2014-12||20.59573333|-100.4047018|0 a 5 personas|0|5|ALIANZA COMERCIAL CE|LULAR SA DE CV||FLORESTA|106|B|CLAVERIA|AZCAPOTZALCO|2080|EGIPTO|RIO NILO|CDMX|ALIANZA COMERCIAL CELULAR  SA DE CV|ALIANZA COMERCIAL CELULAR SA DE CV|ALIANZA COMERCIAL CELULAR 
6518.0|903510.0|325620.0|208.0|903510.0|09014325620000334001000000U8|LABORATORIOS ANTEII SA DE CV|LABORATORIOS ANTEII SA DE CV|CIUDAD DE MÉXICO|Benito Juárez|3550.0|325620.0|Fabricación de cosméticos, perfumes y otras preparaciones de tocador|2014-12|WWW.ANTEII.COM|19.37183321|-99.13834983|31 a 50 personas|31|50|LABORATORIOS ANTEII|SA DE CV||EMILIO CARRANZA|78||ZACAHUIZCO|BENITO JUAREZ|3550|AV PLUTARCO ELIAS CALLES|DOS|CDMX|LABORATORIOS ANTEII  SA DE CV|LABORATORIOS ANTEIISA DE CV|LABORATORIOS ANTEII
6520.0|953466.0|463111.0|209.0|953466.0|09014463111000021001000000U3|MARQUISSE TELAS FINAS|MARQUISSE PARROQUIA SA DE CV|CIUDAD DE MÉXICO|Benito Juárez|3100.0|463111.0|Comercio al por menor de telas|2010-07|WWW.FLICKR.COM/PHOTOS/MARQUISSE/SETS|19.36856954|-99.16655215|0 a 5 personas|0|5|MARQUISSE PARROQUIA|SA DE CV||PARROQUIA|910||DEL VALLE|BENITO JUAREZ|3100|||CDMX|MARQUISSE PARROQUIA  SA DE CV|MARQUISSE PARROQUIASA DE CV|MARQUISSE PARROQUIA
6521.0|6801834.0|464111.0|210.0|6801834.0|09015464111004551000000000U1|FARMACIAS SIMILARES|FARMACIAS SILVAFAM SA DE CV|CIUDAD DE MÉXICO|Cuauhtémoc|6600.0|464111.0|Farmacias sin minisúper|2017-11||19.424142|-99.16315371|0 a 5 personas|0|5|FARMACIAS SILVAFAM S|A DE CV||PROL DIV DEL NORTE|4945||SAN LORENZO LA CEBAD|XOCHIMILCO|16010|GUADALUPE I RAMIREZ|GUADALUPE I RAMIREZ|CDMX|FARMACIAS SILVAFAM  SA DE CV|FARMACIAS SILVAFAM SA DE CV|FARMACIAS SILVAFAM 
6521.0|971456.0|464113.0|211.0|971456.0|09003464111003101010000000S2|FARMACIAS SIMILARES|SILVAFAM SA DE CV|CIUDAD DE MÉXICO|Coyoacán|4200.0|464113.0|Comercio al por menor de productos naturistas, medicamentos homeopáticos y de complementos alimenticios|2010-07||19.34137827|-99.14025096|0 a 5 personas|0|5|FARMACIAS SILVAFAM S|A DE CV||PROL DIV DEL NORTE|4945||SAN LORENZO LA CEBAD|XOCHIMILCO|16010|GUADALUPE I RAMIREZ|GUADALUPE I RAMIREZ|CDMX|FARMACIAS SILVAFAM  SA DE CV|FARMACIAS SILVAFAM SA DE CV|FARMACIAS SILVAFAM 
6525.0|2933743.0|326198.0|212.0|2933743.0|19039541890001273010000000U9|CEPRONSA|SIGNOS ROTULACION SA DE CV|NUEVO LEÓN|Monterrey|64460.0|326198.0|Fabricación de otros productos de plástico con reforzamiento|2010-07|WWW.CEPRONSA.COM|25.69650989|-100.34623212|0 a 5 personas|0|5|SIGNOS ROTULACION SA|DE CV||CALLE 8|215||GRANJAS DE SAN ANTONIO|IZTAPALAPA|9070|C8|C10|CDMX|SIGNOS ROTULACION SA DE CV|SIGNOS ROTULACION SADE CV|SIGNOS ROTULACION 
6525.0|3873767.0|323119.0|213.0|3873767.0|26017339950000013001000000U5|DE SIGNOS ROTULACION||SONORA|Caborca|83620.0|323119.0|Impresión de formas continuas y otros impresos|2010-07||30.70863519|-112.17038048|0 a 5 personas|0|5|SIGNOS ROTULACION SA|DE CV||CALLE 8|215||GRANJAS DE SAN ANTONIO|IZTAPALAPA|9070|C8|C10|CDMX|SIGNOS ROTULACION SA DE CV|SIGNOS ROTULACION SADE CV|SIGNOS ROTULACION 
6526.0|6313848.0|621491.0|214.0|6313848.0|09014621320000074010003843M8|OMNI LASER|HOCCE SA DE CV|CIUDAD DE MÉXICO|Benito Juárez|3020.0|621491.0|Otros centros del sector privado para la atención de pacientes que no requieren hospitalización|2010-07|WWW.OMNILASER.INFO|19.3857779|-99.15965287|0 a 5 personas|0|5|HOCCE,SA DE CV|||PESTALOZZI JOSE ENRIQUE|858||NARVARTE|BENITO JUAREZ|3020|EJE 5 SUR|CONCEPCION BEISTEGUI|CDMX|HOCCE, SA DE CV|HOCCE,SA DE CV|HOCCE
